STATION_CODE,STATION_NAME,DIVISION,ZONE,DISTRICT,STATE,WORKING HOURS FROM,WORKING HOURS TO,TERMINAL TYPE,AVG. RAKES HANDLING,LINE COUNT,HANDLING TYPE,WAREHOUSE_AVAILABLE (YES/NO),OWNER,ASSOCIATED WEIGHBRIDGE,ALTERNATE WEIGHBRIDGE,TANK HANDLING (YES/NO),LATITUDE,LONGITUDE
BPTG,GRAIN DEPOT,BPT,BPT,MUMBAI,MAHARASHTRA,,,PRVT-SDNG,9.4,,,,,,,,18.979312,72.854188
BPTV,VICTORIA DOCK BPT RLY,BPT,BPT,MUMBAI,MAHARASHTRA,00:00,23:59,PRVT-SDNG,5.7,,,,,,,,18.950721,72.845697
C,KIDDERPORE DOCKS,CPT,CPT,KOLKATA,WEST BENGAL,,,PRVT-SDNG,9.0,,,,,,,,22.53639722,88.31575833
BCCK,M/S BULK CEMENT CORPORATION LTD. SDG KALAMBOLI,BB,CR,RAIGAD,MAHARASHTRA,00:00,23:59,PRVT-SDNG,4.5,4.0,MANUAL,N,CWC,KLMG,,N,19.034696,73.114529
BIRD,BHIVANDI ROAD,BB,CR,THANE,MAHARASHTRA,06:00,18:00,GOODS-SHED,1.5,,,,,,,,19.26839467,73.046771
BRSG,"BHARAT PETROLEUM CORPORATION SIDING, TROMBAY",BB,CR,MUMBAI,MAHARASHTRA,07:45,23:45,PRVT-SDNG,9.8,2.0,MANUAL,N,BPCL,BRSG,,Y,19.023498,72.925358
CCIK,M/S COTTON CORPN. OF INDIAN LTD. SIDING KLMI,BB,CR,RAIGAD,MAHARASHTRA,,,PRVT-SDNG,7.2,2.0,,Y,IR,,,N,19.0328,73.1012
CRTK,TURBHE CONTAINER DEPOT,BB,CR,THANE,MAHARASHTRA,,,PRVT-SDNG,1.5,2.0,MANUAL,Y,CONR,CRTK,,N,19.07595832,73.01779656
CWJC,CENTRAL WAREHOUSING CORP. SIDING,BB,CR,RAIGAD,MAHARASHTRA,,,PRVT-SDNG,7.7,,,,,,,,18.93787,73.027925
DRTA,DRONAGIRI RAIL TERMINAL,BB,CR,RAIGAD,MAHARASHTRA,00:00,23:59,PRVT-SDNG,1.3,3.0,MANUAL,N,CONR,JNPT,,N,18.8575,72.9364
FZSG,"RASTRIYA CHEMICAL SIDING, TROMBAY",BB,CR,MUMBAI,MAHARASHTRA,00:00,23:59,PRVT-SDNG,9.3,15.0,MANUAL,N,IR,FZSG,,N,19.023498,72.925358
JNPT,JAWAHAR LAL NEHRU PORT,BB,CR,RAIGAD,MAHARASHTRA,06:00,22:00,PRVT-SDNG,3.4,10.0,MECHANICAL,N,CONR,JNPT,,Y,18.9008,72.98
JSWD,M/S JSW STEEL LTD.,BB,CR,RAIGAD,MAHARASHTRA,,,PRVT-SDNG,4.5,3.0,MECHANICAL,Y,JSWD,JSWD,,N,18.739419,73.087492
JSWV,M/S JSW STEEL COATED PRODUCTS LTD.,BB,CR,THANE,MAHARASHTRA,,,PRVT-SDNG,2.5,2.0,MANUAL,N,JSWV,JSWV,,N,19.406212,73.267479
KFCG,"FOOD CORPN. OF INDIA SDG, KALAMBOLI EXCHANGE YARD",BB,CR,RAIGAD,MAHARASHTRA,06:00,22:00,PRVT-SDNG,4.1,6.0,MANUAL,Y,FCI,KFCG,,N,19.034696,73.114529
KLMG,KALAMBOLI GOODS,BB,CR,RAIGAD,MAHARASHTRA,06:00,22:00,GOODS-SHED,5.6,9.0,MANUAL,N,IR,KLMG,,N,19.03419383,73.1146025
KSAG,"STEEL AUTHORITY OF INDIA LTD. SDG,  KALAMBOLI EXCHANGE YARD",BB,CR,RAIGAD,MAHARASHTRA,06:00,22:00,PRVT-SDNG,6.5,3.0,MANUAL,N,SEIL,KSAG,,N,19.034696,73.114529
KTIG,"TISCO SIDING, KALAMBOLI EXCHANGE YARD",BB,CR,RAIGAD,MAHARASHTRA,06:00,22:00,PRVT-SDNG,2.8,2.0,MANUAL,N,TISC,KTIG,,N,19.034696,73.114529
KYN,KALYAN JN.,BB,CR,THANE,MAHARASHTRA,06:00,22:00,GOODS-SHED,2.9,14.0,MANUAL,N,IR,KYN,,N,19.2350105,73.12984883
LNL,LONAVLA,BB,CR,PUNE,MAHARASHTRA,06:30,18:30,GOODS-SHED,7.2,8.0,MANUAL,N,IR,LNL,,N,18.74950317,73.40779317
MBPP,M/S BHARAT PETROLEUM CORPORATION LTD. SIDING AT URAN PANVEL,BB,CR,RAIGAD,MAHARASHTRA,06:00,22:00,PRVT-SDNG,2.2,3.0,MECHANICAL,N,BPC,MBPP,,Y,18.990429,73.121266
MILK,M/S CENTRAL WAREHOUSING CORPORATION,BB,CR,RAIGAD,MAHARASHTRA,06:00,22:00,PRVT-SDNG,3.0,3.0,MANUAL,N,IR,KLMG,,N,19.0328,73.1012
MIOJ,IOT INFRASTRUCTURE AND ENERGY SERVICES LTD,BB,CR,RAIGAD,MAHARASHTRA,06:00,22:00,PRVT-SDNG,2.5,3.0,MANUAL,N,,MIOJ,,Y,18.93787,73.027925
NGSM,NEW MULAND GOODS DEPOT,BB,CR,MUMBAI SUBURBAN,MAHARASHTRA,00:00,23:59,CRT,1.2,4.0,MANUAL,N,IR,NGSM,,N,19.0176,72.8562
NGTN,NAGOTHANE,BB,CR,RAIGAD,MAHARASHTRA,06:00,22:00,CRT,1.8,3.0,MANUAL,N,IR,NGTN,,N,18.540677,73.14082233
NRSG,"NATIONAL RAYON CORPORATION SDG, KALYAN",BB,CR,THANE,MAHARASHTRA,06:00,22:00,RLY-SDNG,4.3,3.0,MANUAL,N,IR,NRSG,,N,19.235126,73.13015
NSKG,"NAVAL SIDING KARANJA, URAN CITY",BB,CR,RAIGAD,MAHARASHTRA,06:30,18:30,RLY-SDNG,2.9,2.0,MANUAL,N,IR,NSKG,,N,18.878189,72.952137
PATP,ADANI AGRO LOGISTICS LTD,BB,CR,RAIGAD,MAHARASHTRA,06:00,22:00,PRVT-SDNG,8.4,2.0,MECHANICAL,N,ADEL,PATP,,N,19.078991,73.087406
PEN,PEN,BB,CR,RAIGAD,MAHARASHTRA,06:00,18:00,GOODS-SHED,2.0,2.0,MANUAL,N,IR,PEN,,N,18.73609633,73.08680983
PNCS,M/S NAVKAR CORP. LTD,BB,CR,RAIGAD,MAHARASHTRA,06:00,22:00,PRVT-SDNG,3.1,3.0,MANUAL,Y,NCP,PNCS,,N,18.951793,73.145084
PPDP,M/S PNP MARITIME SERVICES LTD,BB,CR,RAIGAD,MAHARASHTRA,06:00,22:00,PRVT-SDNG,2.4,2.0,MECHANICAL,Y,PMSP,PPDP,,N,18.739419,73.087492
ROHA,ROHA,BB,CR,RAIGAD,MAHARASHTRA,06:00,22:00,GOODS-SHED,5.0,3.0,MANUAL,N,IR,ROHA,,N,18.44684533,73.124059
TAPG,TURBHE APM COMPLEX,BB,CR,THANE,MAHARASHTRA,06:00,22:00,CRT,2.7,4.0,MANUAL,N,IR,TAPG,,N,19.07595832,73.01779656
TMBY,TROMBAY,BB,CR,MUMBAI,MAHARASHTRA,06:00,22:00,GOODS-SHED,5.2,,,,,,,,19.023498,72.925358
TPND,TALOJA PANCHNAND,BB,CR,RAIGAD,MAHARASHTRA,,,GOODS-SHED,1.9,3.0,MANUAL,N,IR,TPND,,N,19.07952117,73.08796017
TTPS,"TATA THERMAL POWER STATION SIDING, TROMBAY",BB,CR,MUMBAI,MAHARASHTRA,00:00,23:59,PRVT-SDNG,1.3,2.0,MANUAL,N,IR,TTPS,,N,19.023498,72.925358
TVSG,"RASTRIYA CHEMICAL AND FERT.SIDING THAL VAISHET,PEN",BB,CR,RAIGAD,MAHARASHTRA,00:00,23:59,PRVT-SDNG,9.3,13.0,MANUAL,Y,RCF,TVSG,,N,18.739419,73.087492
URAN,URAN,BB,CR,RAIGAD,MAHARASHTRA,06:00,22:00,GOODS-SHED,1.6,,,,,,,,18.99041111,73.12200556
VIR,WELSPUN MAXSTEEL. LTD.,BB,CR,RAIGAD,MAHARASHTRA,06:00,22:00,RLY-SDNG,2.3,2.0,MANUAL,N,WELS,VIR,,N,18.44684043,73.12392712
VOSG,"HINDUSTAN PETROLEUM CORPORATION SIDING, TROMBAY",BB,CR,MUMBAI,MAHARASHTRA,07:45,23:45,PRVT-SDNG,6.9,2.0,MANUAL,N,HPCH,VOSG,,Y,19.023498,72.925358
VSPG,"VISAKHA PATNAM STEEL PROJECT SDG,  KALAMBOLI",BB,CR,RAIGAD,MAHARASHTRA,06:00,22:00,PRVT-SDNG,9.2,2.0,MANUAL,N,VISM,VSPG,,N,19.034696,73.114529
AAK,ANKAIKILA,BSL,CR,NASHIK,MAHARASHTRA,06:00,22:00,GOODS-SHED,2.1,,,,IR,,,,20.18292017,74.43777683
AK,AKOLA (BG),BSL,CR,AKOLA,MAHARASHTRA,,,GOODS-SHED,8.0,2.0,MANUAL,N,IR,,,N,20.7233795,77.0038775
BAU,BURHANPUR,BSL,CR,BURHANPUR,MADHYA PRADESH,,,GOODS-SHED,9.2,1.0,MANUAL,N,IR,BMA,,N,21.335227,76.19977083
BD,BADNERA JN.,BSL,CR,AMRAVATI,MAHARASHTRA,00:00,23:59,GOODS-SHED,1.8,3.0,MANUAL,Y,IR,TAE,,N,20.8575245,77.73169333
BESG,MSEB SIDING PARAS,BSL,CR,AKOLA,MAHARASHTRA,00:00,23:59,PRVT-SDNG,1.1,6.0,MECHANICAL,N,MSPG,TAE,,Y,20.724889,76.816235
BGN,BORGAON,BSL,CR,AKOLA,MAHARASHTRA,06:00,22:00,GOODS-SHED,5.3,2.0,MANUAL,N,IR,TAE,,N,20.72869767,77.1811655
BPCP,BPCL SDG. PANEVADI,BSL,CR,NASHIK,MAHARASHTRA,09:00,17:00,PRVT-SDNG,3.4,2.0,MECHANICAL,N,BPCL,BMA,,Y,20.26574,74.495373
BSGS,BHUSAVAL GOODS SHED,BSL,CR,JALGAON,MAHARASHTRA,,,CRT,3.0,1.0,MANUAL,N,IR,BMA,,N,21.047,75.7884
CSN,CHALISGAON JN.,BSL,CR,JALGAON,MAHARASHTRA,06:00,22:00,GOODS-SHED,3.4,1.0,MANUAL,Y,IR,BMA,,N,20.463404,74.99833467
DHI,DHULE   (DHULIA),BSL,CR,DHULE,MAHARASHTRA,00:00,23:59,GOODS-SHED,9.6,2.0,MANUAL,N,IR,BMA,,N,20.88783783,74.768025
DMSG,"DEVLALI MILITARY SIDING, DEVLALI",BSL,CR,NASHIK,MAHARASHTRA,06:00,22:00,RLY-SDNG,1.9,2.0,MANUAL,N,MILY,BMA,,N,19.897099,73.83688
DVL,DEVLALI,BSL,CR,NASHIK,MAHARASHTRA,06:00,22:00,GOODS-SHED,8.8,,,,IR,,,,19.897877,73.8368595
GDSG,"FOOD CORPORATION OF INDIA SDG, MANMAD",BSL,CR,NASHIK,MAHARASHTRA,06:00,22:00,PRVT-SDNG,1.7,15.0,MANUAL,N,IR,BMA,,N,20.249877,74.438295
IOC,POL SIDING FOR IOC LTD. SHIRUD,BSL,CR,DHULE,MAHARASHTRA,06:00,22:00,PRVT-SDNG,4.5,1.0,MECHANICAL,N,IOC,BMA,,Y,20.735566,74.876461
JL,JALGAON JN.,BSL,CR,JALGAON,MAHARASHTRA,00:00,23:59,GOODS-SHED,9.5,3.0,MANUAL,N,IR,BMA,,N,21.01837117,75.56334917
KBSN,KASBE SUKENE,BSL,CR,NASHIK,MAHARASHTRA,06:00,22:00,CRT,5.3,,,,IR,,,,20.07418633,74.0312215
KMN,KHAMGAON,BSL,CR,BULDHANA,MAHARASHTRA,06:00,22:00,GOODS-SHED,4.4,3.0,MANUAL,N,IR,BMA,,N,20.70835483,76.57083967
KNW,KHANDWA   (BG),BSL,CR,EAST NIMAR,MADHYA PRADESH,,,GOODS-SHED,8.6,3.0,MANUAL,Y,IR,JHS,,N,21.823675,76.35330833
KW,KHERVADI,BSL,CR,NASHIK,MAHARASHTRA,06:00,22:00,CRT,1.9,1.0,MANUAL,N,IR,BMA,,N,20.0466005,73.973851
LS,LASAL GAON,BSL,CR,NASHIK,MAHARASHTRA,00:00,23:59,GOODS-SHED,5.4,2.0,MANUAL,N,IR,BMA,,N,20.15493817,74.22579417
MFSG,"MAHARASTRA STATE ELECT BOARD SDG, BHUSAVAL",BSL,CR,JALGAON,MAHARASHTRA,00:00,23:59,PRVT-SDNG,7.2,11.0,MECHANICAL,N,MSPG,TAE,,Y,21.0469912,75.7883817
MKU,MALKAPUR,BSL,CR,BULDHANA,MAHARASHTRA,00:00,23:59,GOODS-SHED,3.5,2.0,MANUAL,N,IR,BMA,,N,20.89197983,76.20484033
MMR,MANMAD JN.,BSL,CR,NASHIK,MAHARASHTRA,06:00,22:00,GOODS-SHED,5.1,2.0,MANUAL,N,IR,BMA,,N,20.25036283,74.439509
MQSG,"MSEB THERMAL POWER STATION SDG, ODHA",BSL,CR,NASHIK,MAHARASHTRA,00:00,23:59,PRVT-SDNG,9.2,7.0,MECHANICAL,N,MSPG,TAE,,Y,20.01642,73.910866
NGN,NANDGAON,BSL,CR,NASHIK,MAHARASHTRA,06:00,22:00,GOODS-SHED,4.7,3.0,MANUAL,N,IR,BMA,,N,20.309674,74.66060117
NK,NASIK ROAD,BSL,CR,NASHIK,MAHARASHTRA,00:00,23:59,GOODS-SHED,2.5,4.0,MANUAL,Y,IR,BMA,,N,19.94825633,73.84255533
NMSG,NEPA LIMITED SIDING,BSL,CR,BURHANPUR,MADHYA PRADESH,06:00,22:00,PRVT-SDNG,8.0,4.0,MECHANICAL,N,NPL,BMA,,N,21.463853,76.396952
NR,NIPHAD,BSL,CR,NASHIK,MAHARASHTRA,06:00,22:00,CRT,4.3,1.0,MANUAL,N,IR,BMA,,N,20.09698083,74.0800145
OCSB,ORIENT CEMENT SIDING BHADLI,BSL,CR,JALGAON,MAHARASHTRA,00:00,23:59,PRVT-SDNG,10.0,5.0,MECHANICAL,N,OCSB,,,N,21.0222615,75.6729054
PC,PACHORA JN.,BSL,CR,JALGAON,MAHARASHTRA,06:00,22:00,GOODS-SHED,8.7,1.0,MANUAL,N,IR,BMA,,N,20.66876217,75.34923517
POLG,POL SIDING FOR IOC LTD. GAIGAON,BSL,CR,AKOLA,MAHARASHTRA,06:00,22:00,PRVT-SDNG,3.0,1.0,MECHANICAL,N,IOC,TAE,,Y,20.720554,76.889963
PS,PARAS,BSL,CR,AKOLA,MAHARASHTRA,00:00,23:59,GOODS-SHED,7.4,2.0,MANUAL,N,IR,BMA,,N,20.7249775,76.8164155
RPLW,M/S RATANINDIA POWER LTD,BSL,CR,AMRAVATI,MAHARASHTRA,06:00,22:00,PRVT-SDNG,4.3,4.0,MECHANICAL,N,RATT,,,Y,21.0129,77.7037
RV,RAVER,BSL,CR,JALGAON,MAHARASHTRA,,,GOODS-SHED,8.9,1.0,MANUAL,N,IR,BMA,,N,21.221902,76.04422867
SAV,SAVDA,BSL,CR,JALGAON,MAHARASHTRA,06:00,22:00,GOODS-SHED,3.5,3.0,MANUAL,N,IR,BMA,,N,21.11060433,75.91035117
AGSA,AJNI GOODS SHED SERVED BY AJNI,NGP,CR,NAGPUR,MAHARASHTRA,06:00,22:00,CRT,9.6,2.0,BOTH,Y,IR,BTBR,,N,21.126945,79.082785
AMSG,"AIR FORCE SIDING, AMLA",NGP,CR,BETUL,MADHYA PRADESH,06:00,22:00,PRVT-SDNG,1.1,2.0,MANUAL,N,MILY,BTBR,,N,21.919837,78.123307
BPQ,BALHARSHAH,NGP,CR,CHANDRAPUR,MAHARASHTRA,06:00,22:00,GOODS-SHED,2.3,1.0,BOTH,N,IR,TAE,,N,19.84992167,79.347415
BROL,POL SIDING FOR M/S BPCL,NGP,CR,NAGPUR,MAHARASHTRA,06:00,18:00,PRVT-SDNG,6.9,2.0,MECHANICAL,N,BPCL,BTBR,,Y,20.86047604,78.97474766
BTBR,BUTI BORI JN.,NGP,CR,NAGPUR,MAHARASHTRA,00:00,23:59,CRT,2.8,8.0,MECHANICAL,N,IR,BTBR,,N,20.91843889,79.01347222
BZU,BETUL,NGP,CR,BETUL,MADHYA PRADESH,06:00,22:00,GOODS-SHED,8.7,2.0,MANUAL,Y,IR,BTBR,,N,21.896685,77.90580167
CD,CHANDRAPUR (MH),NGP,CR,CHANDRAPUR,MAHARASHTRA,00:00,23:59,GOODS-SHED,2.1,2.0,BOTH,N,IR,TAE,,N,19.96021,79.29988167
CESG,"ASSOCIATE CEMENT CO. SIDING, GHUGUS",NGP,CR,CHANDRAPUR,MAHARASHTRA,00:00,23:59,PRVT-SDNG,8.2,4.0,MANUAL,N,ACC,TAE,,N,19.949953,79.104137
CGM,"CHARGAON COLLIERY SIDING, MAJRI JN.",NGP,CR,CHANDRAPUR,MAHARASHTRA,00:00,23:59,PRVT-SDNG,4.2,1.0,MECHANICAL,N,WCF,BPK,,N,20.109861,79.019208
CKNI,CHIKNI ROAD,NGP,CR,CHANDRAPUR,MAHARASHTRA,06:00,18:00,GOODS-SHED,6.1,1.0,MECHANICAL,N,IR,TAE,,N,20.32505,78.960095
CSID,MOHAN SIDING PALACHORI,NGP,CR,CHHINDWARA,MADHYA PRADESH,00:00,23:59,PRVT-SDNG,8.0,2.0,MECHANICAL,N,WCF,JNO,,N,22.201352,78.659427
DCSG,"EAST DONGERCHIKLI COLLIERY SDG, PARASIA",NGP,CR,CHHINDWARA,MADHYA PRADESH,00:00,23:59,PRVT-SDNG,6.6,2.0,MECHANICAL,N,WCF,JNO,,N,22.193286,78.76442
DLIB,M/S DISTRIBUTION LOGISTICS INFRASTRUCTURE PVT.LTD.,NGP,CR,NAGPUR,MAHARASHTRA,,,PRVT-SDNG,5.6,4.0,MECHANICAL,Y,DLI,BTBR,,N,20.86047604,78.97474766
DMN,DHAMANGAON,NGP,CR,AMRAVATI,MAHARASHTRA,06:00,22:00,GOODS-SHED,9.6,1.0,MANUAL,Y,IR,BTBR,,N,20.78459667,78.13846944
EOLD,M/S NAYARA ENERGY LTD,NGP,CR,WARDHA,MAHARASHTRA,06:00,22:00,PRVT-SDNG,2.3,1.0,MECHANICAL,N,NERL,BTBR,,Y,20.729505,78.463283
FBSG,"FCI (BUFFAR STORAGE GODOWN) SDG, SEVAGRAM",NGP,CR,WARDHA,MAHARASHTRA,06:00,22:00,PRVT-SDNG,6.1,6.0,MANUAL,Y,FCI,BTBR,,N,20.738616,78.618765
FFSG,"FILLING FACTORY SIDING, BHANDAK",NGP,CR,CHANDRAPUR,MAHARASHTRA,06:30,18:30,PRVT-SDNG,10.0,2.0,MANUAL,Y,MILY,BPK,,N,20.084712,79.112978
FNSG,"FOOD CORPORATION OF INDIA SDG, NAGPUR (AJNI)",NGP,CR,NAGPUR,MAHARASHTRA,06:00,22:00,PRVT-SDNG,7.5,4.0,MANUAL,Y,FCI,BTBR,,N,21.11581,79.078646
GGS,GHUGUS,NGP,CR,CHANDRAPUR,MAHARASHTRA,00:00,23:59,GOODS-SHED,4.7,3.0,MECHANICAL,N,IR,GGS,,N,19.94294,79.11428333
GNQ,GODHANI,NGP,CR,NAGPUR,MAHARASHTRA,00:00,23:59,GOODS-SHED,6.6,1.0,MANUAL,N,IR,BTBR,,N,21.21170333,79.06884
GSG,"GHUGUS COLLIERY SDG, GHUGUS",NGP,CR,CHANDRAPUR,MAHARASHTRA,00:00,23:59,PRVT-SDNG,9.4,2.0,MECHANICAL,N,WCL,TAE,,N,19.949953,79.104137
HGT,HINGANGHAT,NGP,CR,WARDHA,MAHARASHTRA,06:00,22:00,GOODS-SHED,4.3,1.0,MANUAL,N,IR,BPK,,N,20.54257,78.83363333
HLSG,"HINDUSTAN LALPETH COLLIERY SDG, BABU PETH",NGP,CR,CHANDRAPUR,MAHARASHTRA,00:00,23:59,PRVT-SDNG,1.1,1.0,MECHANICAL,N,WCF,TAE,,N,19.922681,79.312577
HRG,HIRDAGARH,NGP,CR,CHHINDWARA,MADHYA PRADESH,00:00,23:59,GOODS-SHED,9.5,1.0,MECHANICAL,N,IR,JNO,,N,22.14223667,78.51725333
IOBT,"POL SIDING FOR IOC AND BPCL, TADALI",NGP,CR,CHANDRAPUR,MAHARASHTRA,06:00,18:00,PRVT-SDNG,9.3,3.0,MECHANICAL,N,IOC,TAE,,Y,20.034725,79.187393
JCSK,M/S JSW STEEL COATED PRODUCTS LIMITED,NGP,CR,NAGPUR,MAHARASHTRA,,,PRVT-SDNG,5.2,,,,,,,,21.22932167,78.915495
KAYR,KAYER,NGP,CR,YAVATMAL,MAHARASHTRA,00:00,23:59,GOODS-SHED,7.0,1.0,MECHANICAL,Y,IR,WANI,,N,19.90677333,78.90751833
KECM,KARNATAKAEMTA COAL MINES SDNG,NGP,CR,CHANDRAPUR,MAHARASHTRA,06:00,22:00,PRVT-SDNG,2.7,1.0,MECHANICAL,N,KECM,BPK,,N,20.138873,79.043112
KRI,KHAPRI,NGP,CR,NAGPUR,MAHARASHTRA,06:00,22:00,GOODS-SHED,3.3,1.0,MECHANICAL,N,IR,BTBR,,Y,21.04983,79.048845
KRSP,KIRSADOH RAILWAY SIDING,NGP,CR,CHHINDWARA,MADHYA PRADESH,,,RLY-SDNG,6.7,2.0,BOTH,N,IR,JNO,,N,22.193286,78.76442
KSWR,KALMESHWAR,NGP,CR,NAGPUR,MAHARASHTRA,,,GOODS-SHED,3.7,1.0,BOTH,N,IR,BTBR,,N,21.22932167,78.915495
MBCB,"BALLARPUR COLLIERY SDG,  BALLARSHAH",NGP,CR,CHANDRAPUR,MAHARASHTRA,00:00,23:59,PRVT-SDNG,8.8,1.0,MECHANICAL,N,WCF,TAE,,N,19.848997,79.347736
MDIT,M/S DHARIWAL INFRASTRUTRE LTD SIDING,NGP,CR,CHANDRAPUR,MAHARASHTRA,00:00,23:59,PRVT-SDNG,2.6,2.0,MECHANICAL,N,DWIS,TAE,,N,20.034725,79.187393
MELG,"MAHARASTRA ELECTRO SMELT SDG, CHANDRAPUR",NGP,CR,CHANDRAPUR,MAHARASHTRA,06:00,22:00,PRVT-SDNG,6.4,3.0,BOTH,N,CPFP,TAE,,N,19.959796,79.300175
MJSG,"NEW MANJRI COLLIERY SIDING,  MAJRIKHADAN",NGP,CR,CHANDRAPUR,MAHARASHTRA,00:00,23:59,PRVT-SDNG,6.2,1.0,MECHANICAL,N,WCF,BPK,,N,20.109861,79.019208
MJY,MARAMJHIRI,NGP,CR,BETUL,MADHYA PRADESH,06:00,22:00,CRT,5.6,,,,,,,,21.94424667,77.88333667
MKCW,KARTIKEY COAL WASHRIES PVT. LTD.,NGP,CR,YAVATMAL,MAHARASHTRA,00:00,23:59,PRVT-SDNG,9.4,1.0,MECHANICAL,N,KCWL,WANI,,N,20.06609,78.962345
MLSW,M/S EVONITH VALUE STEEL LTD,NGP,CR,WARDHA,MAHARASHTRA,,,PRVT-SDNG,2.9,5.0,BOTH,N,UVSL,BPK,,N,20.708914,78.63018
MNSG,"MAJRI OLD  SDG, MAJRIKHADAN",NGP,CR,CHANDRAPUR,MAHARASHTRA,00:00,23:59,PRVT-SDNG,4.2,1.0,MECHANICAL,N,WCF,BPK,,N,20.109861,79.019208
MPBG,MADHYA PRADESH ELECTRICITY BOARD SIDING (SARNI)  GHORADONGRI,NGP,CR,BETUL,MADHYA PRADESH,00:00,23:59,PRVT-SDNG,9.9,5.0,MECHANICAL,N,MPPG,ET,,N,22.126593,78.002157
MTY,MULTAI,NGP,CR,BETUL,MADHYA PRADESH,06:00,22:00,GOODS-SHED,4.5,1.0,MANUAL,Y,IR,ET,,N,21.783065,78.26336833
NLGS,M/S NAGPUR MMLP GATI SHAKTI MULTI MODAL CARGO TERMINAL,NGP,CR,NAGPUR,MAHARASHTRA,06:00,22:00,PRVT-SDNG,8.0,,,,,,,,20.81581944,78.88301111
NTPG,"NEW THERMAL POWER STATION SDG, CHANDRAPUR",NGP,CR,CHANDRAPUR,MAHARASHTRA,00:00,23:59,PRVT-SDNG,3.4,7.0,MECHANICAL,N,MSPG,TAE,,Y,19.959796,79.300175
PALB,M/S ADANI LOGISTICS LTD PFT,NGP,CR,NAGPUR,MAHARASHTRA,00:00,23:59,PRVT-SDNG,6.2,,,,,,,,20.86045833,78.97486944
PAR,PANDURNA,NGP,CR,CHHINDWARA,MADHYA PRADESH,06:00,22:00,GOODS-SHED,3.6,1.0,MANUAL,Y,IR,ET,,N,21.589725,78.525125
PCPK,MULTI MODEL LOGISTIC PARK,NGP,CR,NAGPUR,MAHARASHTRA,06:00,22:00,PRVT-SDNG,3.9,5.0,MECHANICAL,N,CONR,BTBR,,N,21.049018,79.048519
PLO,PULGAON JN.,NGP,CR,WARDHA,MAHARASHTRA,06:00,22:00,GOODS-SHED,6.2,1.0,MANUAL,N,IR,BTBR,,N,20.7265,78.31722778
PMEC,M/S GMR WARORA ENERGY LTD.,NGP,CR,CHANDRAPUR,MAHARASHTRA,,,PRVT-SDNG,5.3,4.0,MECHANICAL,N,GMR,BPK,,N,20.326036,78.959427
PMKT,PIMPALKHUTI,NGP,CR,YAVATMAL,MAHARASHTRA,06:00,22:00,GOODS-SHED,5.6,1.0,MANUAL,N,IR,WANI,,N,19.83019833,78.580655
POSG,"ORDINANCE DEPOT MILITARY SDG, PULGAON",NGP,CR,WARDHA,MAHARASHTRA,06:30,18:30,PRVT-SDNG,2.3,8.0,MANUAL,N,MILY,BTBR,,N,20.726294,78.317671
PUX,PARASIA JN.,NGP,CR,CHHINDWARA,MADHYA PRADESH,06:00,22:00,GOODS-SHED,7.7,2.0,MANUAL,Y,IR,JNO,,N,22.19362,78.76368667
PVIT,M/S VIMALA INFRASTRUCTURE INDIA PVT. LTD,NGP,CR,CHANDRAPUR,MAHARASHTRA,06:00,18:00,PRVT-SDNG,8.2,3.0,BOTH,Y,VIIP,TAE,,N,20.034725,79.187393
PWCL,M/S SAI WARDHA POWER GENERATION LTD,NGP,CR,CHANDRAPUR,MAHARASHTRA,06:00,22:00,PRVT-SDNG,6.7,4.0,MECHANICAL,N,SWPL,BPK,,N,20.244643,79.010324
RAJR,RAJUR,NGP,CR,YAVATMAL,MAHARASHTRA,00:00,23:59,GOODS-SHED,1.1,2.0,MECHANICAL,N,IR,WANI,,N,20.105911,78.91016
RCXG,"RAYATWARI COLLIERY SDG,  CHANDRAPUR",NGP,CR,CHANDRAPUR,MAHARASHTRA,00:00,23:59,PRVT-SDNG,2.2,2.0,MECHANICAL,N,WCF,TAE,,N,19.959796,79.300175
RGTM,M/S RELIANCE CEMENT COMPANY PVT LTD,NGP,CR,YAVATMAL,MAHARASHTRA,00:00,23:59,PRVT-SDNG,7.3,,,,,,,,20.06675,78.96060833
RJSG,"RAJUR COLLIERY SDG,  RAJUR",NGP,CR,YAVATMAL,MAHARASHTRA,00:00,23:59,PRVT-SDNG,3.3,3.0,MECHANICAL,N,WCF,WANI,,N,20.105911,78.91016
RKSG,"RAWANWARA KHAS COLLIERY SDG AND EXT TO RAWANWARA, PARASIA",NGP,CR,CHHINDWARA,MADHYA PRADESH,00:00,23:59,PRVT-SDNG,6.2,2.0,MECHANICAL,N,WCL,JNO,,N,22.193286,78.76442
RNGS,RAJUR NEW GOODS SHED SERVED BY RAJUR,NGP,CR,YAVATMAL,MAHARASHTRA,00:00,23:59,GOODS-SHED,1.4,,,,,,,,20.105911,78.91016
TAE,TADALI JN.,NGP,CR,CHANDRAPUR,MAHARASHTRA,00:00,23:59,GOODS-SHED,7.0,3.0,BOTH,N,IR,TAE,,N,20.03460667,79.18773833
UMSG,"UMRED COLLIERY SIDING, BUTI BORI",NGP,CR,NAGPUR,MAHARASHTRA,00:00,23:59,PRVT-SDNG,5.0,4.0,MECHANICAL,N,WCL,BTBR,,N,20.91847276,79.01362896
VIPS,M/S VIDARBHA INDUSTRIES POWER LTD,NGP,CR,NAGPUR,MAHARASHTRA,,,PRVT-SDNG,4.9,5.0,MECHANICAL,N,VBIP,BTBR,,N,20.816056,78.882952
WANI,WANI,NGP,CR,YAVATMAL,MAHARASHTRA,00:00,23:59,GOODS-SHED,6.6,2.0,MECHANICAL,N,IR,WANI,,N,20.06675,78.96060833
WNGS,WANI NEW GOODS SHED,NGP,CR,YAVATMAL,MAHARASHTRA,00:00,23:59,GOODS-SHED,8.5,,,,,,,,20.06675,78.96060833
WR,WARDHA JN.,NGP,CR,WARDHA,MAHARASHTRA,00:00,23:59,GOODS-SHED,9.6,1.0,MANUAL,Y,IR,BTBR,,N,20.73270556,78.59488889
ANG,AHMEDNAGAR,PUNE,CR,AHMEDNAGAR,MAHARASHTRA,00:00,23:59,GOODS-SHED,6.6,3.0,MANUAL,N,IR,,,N,19.07422,74.72182333
BAP,BELAPUR,PUNE,CR,AHMEDNAGAR,MAHARASHTRA,00:00,23:59,GOODS-SHED,7.8,1.0,MANUAL,N,IR,-NA-,,N,19.619965,74.659995
BFSG,"BHARAT FORGE CO SDG, HADAPSAR",PUNE,CR,PUNE,MAHARASHTRA,06:00,22:00,PRVT-SDNG,6.0,2.0,MECHANICAL,N,BF,,,Y,18.526817,73.927774
BPAL,M/S BPCL PRIVATE SIDING,PUNE,CR,PUNE,MAHARASHTRA,00:00,23:59,PRVT-SDNG,3.2,,,,,,,,18.46305,74.0643095
BRMT,BARAMATI,PUNE,CR,PUNE,MAHARASHTRA,06:00,22:00,GOODS-SHED,6.1,1.0,MANUAL,N,IR,,,N,18.15362833,74.57790917
CCH,CHINCHVAD,PUNE,CR,PUNE,MAHARASHTRA,06:00,22:00,CRT,3.1,1.0,MECHANICAL,N,IR,-NA-,,N,18.64051867,73.7912475
CMSG,"CENTRAL ORDINANCE DEPOT, DEHU ROAD",PUNE,CR,PUNE,MAHARASHTRA,06:00,22:00,RLY-SDNG,6.1,1.0,MANUAL,N,MILY,-NA-,,N,18.680276,73.734269
CPSG,"ORDINANCE DEPOT SDG, TALEGAON DABHADE",PUNE,CR,PUNE,MAHARASHTRA,06:00,22:00,RLY-SDNG,9.7,1.0,MANUAL,N,MILY,-NA-,,N,18.70107,73.706031
CWHC,CENTRAL WAREHOUSE SIDING,PUNE,CR,SANGLI,MAHARASHTRA,06:00,22:00,PRVT-SDNG,3.9,2.0,MANUAL,Y,CWC,,,N,16.819946,74.638839
DASG,"DEHU AMMUNITION DEPOT, SHELARWADI",PUNE,CR,PUNE,MAHARASHTRA,06:00,22:00,RLY-SDNG,2.6,1.0,MANUAL,N,MILY,-NA-,,N,18.70107,73.706031
DD,DAUND JN.,PUNE,CR,PUNE,MAHARASHTRA,06:00,22:00,GOODS-SHED,7.7,2.0,MANUAL,N,IR,,,Y,18.46374833,74.57912167
FSG,PHURSUNGI,PUNE,CR,PUNE,MAHARASHTRA,00:00,23:59,CRT,3.0,,,,,,,,18.45725583,74.002013
GHSG,GHORPURI  GRAIN GODOWN SIDING,PUNE,CR,PUNE,MAHARASHTRA,06:00,22:00,PRVT-SDNG,1.6,1.0,MANUAL,Y,FCI,,,N,18.529178,73.872886
GRMT,GUD MARKET,PUNE,CR,KOLHAPUR,MAHARASHTRA,06:00,22:00,GOODS-SHED,1.2,4.0,MANUAL,N,IR,,,N,16.70125117,74.2677795
HPLC,HPCL(POL) SIDING-BHILAVDI,PUNE,CR,SANGLI,MAHARASHTRA,06:00,22:00,PRVT-SDNG,7.1,2.0,MECHANICAL,N,HPC,,,Y,17.007668,74.516401
HPLG,"HPC OIL TERMINAL SIDING, LONI",PUNE,CR,PUNE,MAHARASHTRA,00:00,23:59,PRVT-SDNG,5.6,3.0,MECHANICAL,N,HPCH,,,Y,18.491331,74.020214
KK,KHADKI,PUNE,CR,PUNE,MAHARASHTRA,06:00,22:00,GOODS-SHED,5.2,4.0,MANUAL,N,IR,,,N,18.5623795,73.8415295
KPG,KOPARGAON,PUNE,CR,AHMEDNAGAR,MAHARASHTRA,06:00,22:00,GOODS-SHED,2.9,1.0,MANUAL,N,IR,AAK,,N,19.903475,74.50367333
KRD,KARAD,PUNE,CR,SATARA,MAHARASHTRA,06:00,22:00,GOODS-SHED,3.7,2.0,MANUAL,N,IR,,,N,17.30983233,74.21690217
KVSG,"ARMOURED FIGHTING VEHICLE DEPOT SIDING,  KHADKI",PUNE,CR,PUNE,MAHARASHTRA,06:00,22:00,RLY-SDNG,2.2,1.0,MANUAL,N,MILY,-NA-,,N,18.56311,73.840613
LNN,LONAND,PUNE,CR,SATARA,MAHARASHTRA,06:00,22:00,GOODS-SHED,3.3,1.0,MANUAL,N,IR,,,N,18.04052383,74.19032283
LONI,LONI,PUNE,CR,PUNE,MAHARASHTRA,00:00,23:59,GOODS-SHED,6.7,2.0,MECHANICAL,N,IR,,,N,18.49111483,74.02072467
MRJ,MIRAJ JN.,PUNE,CR,SANGLI,MAHARASHTRA,06:00,22:00,CRT,2.3,2.0,MANUAL,N,IR,,,Y,16.819216,74.638966
PPCP,M/S PENNA CEMENT INDUSTRIES LTD,PUNE,CR,PUNE,MAHARASHTRA,06:00,22:00,PRVT-SDNG,3.1,2.0,MECHANICAL,N,PCIL,,,N,18.473911,74.467907
PSIA,POL SIDING FOR ICL/AKOLNER-AKOLNER,PUNE,CR,AHMEDNAGAR,MAHARASHTRA,06:00,22:00,PRVT-SDNG,7.5,1.0,MECHANICAL,N,IOC,,,Y,18.985519,74.66918
RRI,RAHURI,PUNE,CR,AHMEDNAGAR,MAHARASHTRA,06:00,22:00,GOODS-SHED,5.0,1.0,MANUAL,N,IR,AAK,,N,19.41360667,74.67752833
SCGP,M/S MAHARASHTRA CEMENT PLANT (A UNIT OF SHRI CEMENT L),PUNE,CR,PUNE,MAHARASHTRA,06:00,22:00,PRVT-SDNG,4.7,,,,,,,,18.47394467,74.46822783
SGND,SHRIGONDA ROAD,PUNE,CR,AHMEDNAGAR,MAHARASHTRA,00:00,23:59,GOODS-SHED,3.7,,,,,,,,18.598625,74.64198333
SLI,SANGLI,PUNE,CR,SANGLI,MAHARASHTRA,06:00,22:00,GOODS-SHED,1.6,2.0,MANUAL,N,IR,-NA-,,N,16.8573575,74.58891667
SSV,SASWAD ROAD,PUNE,CR,PUNE,MAHARASHTRA,06:00,22:00,GOODS-SHED,1.9,2.0,MANUAL,Y,IR,,,N,18.47295117,73.95469133
STR,SATARA,PUNE,CR,SATARA,MAHARASHTRA,06:00,22:00,GOODS-SHED,9.4,3.0,MANUAL,N,IR,,,N,17.68860483,74.063342
UTCU,M/S ULTRATECH CEMENT SIDING,PUNE,CR,PUNE,MAHARASHTRA,,,PRVT-SDNG,5.2,2.0,MECHANICAL,N,UCLH,,,N,18.494017,74.1366
VL,VILAD,PUNE,CR,AHMEDNAGAR,MAHARASHTRA,00:00,23:59,GOODS-SHED,3.6,,,,,,,,19.19852333,74.674755
YL,YEOLA,PUNE,CR,NASHIK,MAHARASHTRA,06:00,22:00,GOODS-SHED,2.3,1.0,MANUAL,N,IR,AAK,,N,20.022655,74.49642333
ARAG,ARAG,SUR,CR,SANGLI,MAHARASHTRA,,,GOODS-SHED,4.8,1.0,MANUAL,N,IR,ARAG,,N,16.82265667,74.78813833
BALE,BALE,SUR,CR,SOLAPUR,MAHARASHTRA,00:00,23:59,GOODS-SHED,3.8,1.0,MANUAL,N,IR,,,N,17.67628333,75.84526333
BGVN,BHIGVAN,SUR,CR,PUNE,MAHARASHTRA,06:00,22:00,GOODS-SHED,1.6,4.0,MANUAL,N,IR,WADI,,N,18.31709,74.774745
BPGH,M/S BPCL HIRENANDURU,SUR,CR,KALABURAGI,KARNATAKA,00:00,23:59,PRVT-SDNG,9.2,,,,,,,,17.25856667,76.87236333
BTW,BARSI TOWN,SUR,CR,SOLAPUR,MAHARASHTRA,,,GOODS-SHED,5.8,1.0,MANUAL,N,IR,PJR,,N,18.24093333,75.71824
CCCT,M/S CHETTINAD CEMENT CORPORATION PVT. LTD.,SUR,CR,SOLAPUR,MAHARASHTRA,,,PRVT-SDNG,9.1,5.0,MECHANICAL,N,CCC,ZCT,,N,17.503283,76.069078
HPSG,POL SIDING OF IOC LTD.,SUR,CR,KALABURAGI,KARNATAKA,06:00,18:00,PRVT-SDNG,5.9,1.0,MECHANICAL,N,IOC,,,Y,17.258285,76.872282
KVK,KAVATHE-MAHANKAL,SUR,CR,SANGLI,MAHARASHTRA,06:00,22:00,GOODS-SHED,4.5,1.0,MANUAL,N,IR,ARAG,,N,16.99349333,74.93625
KWV,KURDUWADI JN.,SUR,CR,SOLAPUR,MAHARASHTRA,06:00,22:00,GOODS-SHED,6.5,2.0,MANUAL,N,ZUAR,ZCT,,Y,18.09209,75.41727667
LUR,LATUR,SUR,CR,LATUR,MAHARASHTRA,06:00,22:00,GOODS-SHED,9.5,2.0,MANUAL,N,IR,,,N,18.42969833,76.555775
MBSH,"BIRLA SUPER CEMENT SIDING(GRASIM CEMENT), HOTGI JN.",SUR,CR,SOLAPUR,MAHARASHTRA,00:00,23:59,PRVT-SDNG,2.3,8.0,MECHANICAL,N,UTCL,PSNH,,N,17.565238,75.989513
PIOP,POL SIDING/PAKNI-PAKNI,SUR,CR,SOLAPUR,MAHARASHTRA,06:00,22:00,PRVT-SDNG,4.5,2.0,MECHANICAL,N,IOC,,,Y,17.730865,75.77013
PSNH,M/S NATIONAL THERMAL POWER CORPORATION LTD,SUR,CR,SOLAPUR,MAHARASHTRA,06:30,18:30,PRVT-SDNG,6.9,21.0,MECHANICAL,N,IR,MBSH,,Y,17.565238,75.989513
PVR,PANDHARPUR,SUR,CR,SOLAPUR,MAHARASHTRA,,,GOODS-SHED,4.8,1.0,MANUAL,N,IR,AA,,N,17.66902167,75.31946833
SDSG,JAYPEE CEMENT CORPORATION LTD,SUR,CR,KALABURAGI,KARNATAKA,00:00,23:59,RLY-SDNG,4.3,4.0,BOTH,N,JCCL,AKOR,,N,17.121843,76.943693
SUR,SOLAPUR JN.,SUR,CR,SOLAPUR,MAHARASHTRA,00:00,23:59,GOODS-SHED,8.7,1.0,MANUAL,N,IR,S,,N,17.66430556,75.89321111
TJSP,TAJ SULTANPUR,SUR,CR,KALABURAGI,KARNATAKA,06:00,22:00,GOODS-SHED,7.2,1.0,MANUAL,N,IR,BBD,,N,17.38178667,76.83074167
UMD,USMANABAD,SUR,CR,OSMANABAD,MAHARASHTRA,,,GOODS-SHED,8.6,1.0,MANUAL,N,IR,PK,,N,18.24798333,76.02275167
WADI,WADI JN.,SUR,CR,KALABURAGI,KARNATAKA,00:00,23:59,GOODS-SHED,7.1,2.0,MANUAL,N,IR,BBD,,N,17.05469167,76.99193056
WDSG,"ASSOCIATE CEMENT CO. LTD. SDG,",SUR,CR,KALABURAGI,KARNATAKA,00:00,23:59,PRVT-SDNG,6.4,14.0,MECHANICAL,N,ACC,,,N,17.054692,76.99193
ZCT,ZUARI CEMENT LTD. TILATI,SUR,CR,SOLAPUR,MAHARASHTRA,,,PRVT-SDNG,2.6,4.0,MECHANICAL,N,ZUAR,ZCT,,N,17.503283,76.069078
BDNN,NEW BHADAN,EDFC,DFCR,FIROZABAD,UTTAR PRADESH,,,GOODS-SHED,5.9,,,,,,,,26.96820125,78.75238958
BPUN,NEW BHAUPUR JN.,EDFC,DFCR,KANPUR DEHAT,UTTAR PRADESH,,,GOODS-SHED,3.2,,,,,,,,26.47376327,80.05055869
DAQN,NEW DAUD KHAN,EDFC,DFCR,ALIGARH,UTTAR PRADESH,06:00,23:59,GOODS-SHED,1.7,,,,,,,,27.80404499,78.10276955
EKLN,NEW EKDIL,EDFC,DFCR,ETAWAH,UTTAR PRADESH,,,GOODS-SHED,2.2,,,,,,,,26.76310204,79.13424107
GLHN,NEW GULAOTHI,EDFC,DFCR,BULANDSHAHR,UTTAR PRADESH,00:00,23:59,GOODS-SHED,8.6,,,,,,,,28.61343692,77.79686953
GVGN,NEW MANDI GOBIND GARH,EDFC,DFCR,FATEHGARH SAHIB,PUNJAB,00:00,23:59,CRT,2.8,,,,,,,,30.65801073,76.31879283
KNNN,NEW KHANNA,EDFC,DFCR,LUDHIANA,PUNJAB,00:00,23:59,GOODS-SHED,9.3,,,,,,,,30.7321583,76.1758458
KNSD,NEW KANCHAUSI,EDFC,DFCR,KANPUR DEHAT,UTTAR PRADESH,,,GOODS-SHED,3.9,,,,,,,,26.58192163,79.66992914
KNZN,NEW KALANOUR,EDFC,DFCR,YAMUNANAGAR,HARYANA,06:00,23:59,GOODS-SHED,6.4,,,,,,,,30.08172971,77.34013517
KRJN,NEW KHURJA JN.,EDFC,DFCR,BULANDSHAHR,UTTAR PRADESH,06:00,23:59,GOODS-SHED,9.5,,,,,,,,28.177019,77.84294835
MNRN,NEW MAKKHANPUR,EDFC,DFCR,FIROZABAD,UTTAR PRADESH,06:00,23:59,GOODS-SHED,8.1,,,,,,,,27.11622576,78.47841723
PKYN,NEW PILKHANI,EDFC,DFCR,SAHARANPUR,UTTAR PRADESH,00:00,23:59,GOODS-SHED,8.5,,,,,,,,30.00844516,77.45181762
SMUN,DFCCIL BALLAST SIDING,EDFC,DFCR,PATIALA,PUNJAB,06:00,22:00,GOODS-SHED,1.0,,,,,,,,30.43912062,76.66578114
AELN,NEW ATELI,WDFC,DFCR,MAHENDRAGARH,HARYANA,,,GOODS-SHED,4.6,,,,,,,,28.11450314,76.30100195
BAGN,NEW BHAGEGA,WDFC,DFCR,SIKAR,RAJASTHAN,,,GOODS-SHED,5.4,,,,,,,,27.70130412,75.74630574
BGMN,NEW BANGURGRAM,WDFC,DFCR,AJMER,RAJASTHAN,,,GOODS-SHED,1.4,,,,,,,,26.14041932,74.3504284
BHUN,NEW BHANDU JN.,WDFC,DFCR,MAHESANA,GUJARAT,,,GOODS-SHED,7.6,,,,,,,,23.68489604,72.39150435
BNGS,"M/S SHREE CEMENT LTD SDG, BEAWAR",WDFC,DFCR,AJMER,RAJASTHAN,00:00,00:00,PRVT-SDNG,6.7,10.0,BOTH,N,IR,BNGS,,N,26.1085078,74.3145711
BNSN,NEW BANAS,WDFC,DFCR,SIROHI,RAJASTHAN,,,GOODS-SHED,8.8,,,,,,,,24.71382405,72.98997464
BRLN,NEW BIROLIYA,WDFC,DFCR,PALI,RAJASTHAN,,,GOODS-SHED,6.9,,,,,,,,25.19690683,73.21237129
CDQN,NEW CHADOTAR JN,WDFC,DFCR,BANAS KANTHA,GUJARAT,,,GOODS-SHED,6.7,,,,,,,,24.18607506,72.37348674
CMLK,M/S GREENFIELD PFT OF CONCOR NEEMRANA SERVED BY KATHUWAS,WDFC,DFCR,ALWAR,RAJASTHAN,09:00,17:00,PRVT-SDNG,4.5,6.0,MECHANICAL,Y,IR,,,N,28.129522,76.336069
CNLN,NEW CHANDAWAL,WDFC,DFCR,PALI,RAJASTHAN,,,GOODS-SHED,1.8,,,,,,,,25.92887793,73.84469633
CPFS,CONCOR PRIVATE FREIGHT TERMINAL,WDFC,DFCR,SIROHI,RAJASTHAN,,,PRVT-SDNG,1.2,,,,,,,,24.64187,72.92274
DBLN,NEW DABLA,WDFC,DFCR,MAHENDRAGARH,HARYANA,,,GOODS-SHED,7.2,,,,,,,,27.92343793,75.96644089
DGRN,DFCCIL GATI SHAKTI MULTI-MODAL CARGO TRML AT NEW REWARI,WDFC,DFCR,MAHENDRAGARH,HARYANA,,,GCT,1.6,,,,,,,,28.17903086,76.5494277
FLN,NEW PHULERA,WDFC,DFCR,JAIPUR,RAJASTHAN,,,GOODS-SHED,6.3,,,,,,,,26.873234,75.245876
GUSN,NEW GHUMASAN,WDFC,DFCR,MAHESANA,GUJARAT,06:00,22:00,GOODS-SHED,4.8,,,,,,,,23.34750967,72.46024816
HPRN,NEW HARIPUR,WDFC,DFCR,PALI,RAJASTHAN,,,GOODS-SHED,3.3,,,,,,,,26.00770075,74.00960074
JALN,NEW JAWALI,WDFC,DFCR,PALI,RAJASTHAN,,,GOODS-SHED,8.2,,,,,,,,25.4488683,73.38695275
KSGN,NEW KISHANGARH,WDFC,DFCR,JAIPUR,RAJASTHAN,,,GOODS-SHED,5.4,,,,,,,,26.55126178,74.79181512
KVJN,NEW KESHAV GANJ,WDFC,DFCR,SIROHI,RAJASTHAN,,,GOODS-SHED,2.6,,,,,,,,24.86216418,73.07532388
LCTS,"LAXMI CEMENT SDG, BANAS",WDFC,DFCR,SIROHI,RAJASTHAN,00:00,00:00,PRVT-SDNG,6.0,10.0,BOTH,N,IR,LCTS,,N,24.7135038,72.9890656
MJND,NEW MARWAR JN.,WDFC,DFCR,PALI,RAJASTHAN,,,GOODS-SHED,2.7,,,,,,,,25.70349069,73.59442232
PMPN,NEW PACHAR MALIKPUR,WDFC,DFCR,JAIPUR,RAJASTHAN,,,GOODS-SHED,6.5,,,,,,,,27.20753992,75.39891194
PNUN,NEW PALANPUR  JN.,WDFC,DFCR,BANAS KANTHA,GUJARAT,,,GOODS-SHED,8.8,,,,,,,,24.22945724,72.46270177
PRLN,NEW PRITHALA JS,WDFC,DFCR,FARIDABAD,HARYANA,06:00,23:59,GOODS-SHED,8.9,,,,,,,,28.24246604,77.28339551
REJN,NEW REWARI,WDFC,DFCR,MAHENDRAGARH,HARYANA,,,GOODS-SHED,7.7,,,,,,,,28.17712333,76.55073848
SAUN,NEW SANAND NORTH JN,WDFC,DFCR,MAHESANA,GUJARAT,06:00,22:00,GOODS-SHED,3.6,,,,,,,,23.08216902,72.41181862
SDHN,NEW SARADHNA,WDFC,DFCR,AJMER,RAJASTHAN,,,GOODS-SHED,6.3,,,,,,,,26.37309151,74.60308948
SIMN,NEW SHRI AMIRGADH,WDFC,DFCR,BANAS KANTHA,GUJARAT,,,GOODS-SHED,5.5,,,,,,,,24.40880596,72.65079471
SKNN,NEW SAKHUN,WDFC,DFCR,JAIPUR,RAJASTHAN,,,GOODS-SHED,5.7,,,,,,,,26.72243081,75.06477489
SMPN,NEW SHRI MANDHOPUR,WDFC,DFCR,SIKAR,RAJASTHAN,,,GOODS-SHED,3.9,,,,,,,,27.40901928,75.57608134
SRPD,NEW SWARUPGANJ,WDFC,DFCR,SIROHI,RAJASTHAN,,,GOODS-SHED,7.9,,,,,,,,24.64196356,72.92290854
UMND,NEW UMARDASHI,WDFC,DFCR,BANAS KANTHA,GUJARAT,,,GOODS-SHED,7.1,,,,,,,,24.06679401,72.41519793
UNCK,M/S ULTRA TECH NATHDWARA CEMENT LTD,WDFC,DFCR,SIROHI,RAJASTHAN,00:00,00:00,PRVT-SDNG,4.8,4.0,BOTH,N,IR,UNCK,,N,24.856534,73.071699
AUBR,ANUGRAHA NARAYAN ROAD,DDU,EC,AURANGABAD,BIHAR,,,CRT,6.6,2.0,MANUAL,N,IR,,,Y,24.855943,84.329619
BBU,BHABUA ROAD,DDU,EC,KAIMUR (BHABUA),BIHAR,06:00,18:00,GOODS-SHED,9.9,1.0,MANUAL,N,IR,,,Y,25.17314,83.61924444
BPCM,BHARAT PETRILEUM CORP. LTD. SIDING MUGHALSARAI,DDU,EC,CHANDAULI,UTTAR PRADESH,06:00,22:00,PRVT-SDNG,8.0,2.0,MECHANICAL,N,BPCL,,,Y,25.278539,83.11964
DDU,PT. DEEN DAYAL UPADHYAYA JUNCTION,DDU,EC,CHANDAULI,UTTAR PRADESH,06:00,18:00,CRT,4.9,2.0,MANUAL,N,IR,,,N,25.27902,83.120548
DGO,DURGAUTI,DDU,EC,KAIMUR (BHABUA),BIHAR,06:00,18:00,GOODS-SHED,4.6,,,,,,,,25.208148,83.538686
DOS,DEHRI-ON-SONE,DDU,EC,ROHTAS,BIHAR,06:00,22:00,GOODS-SHED,5.8,,,,,,,,24.91459111,84.18606222
GAYA,GAYA JN.,DDU,EC,GAYA,BIHAR,06:00,18:00,GOODS-SHED,9.9,1.0,MANUAL,Y,IR,,,N,24.804188,84.999504
IMGE,ISMAILPUR,DDU,EC,GAYA,BIHAR,06:00,18:00,GOODS-SHED,3.9,,,,,,,,24.815202,84.723731
JPL,JAPLA,DDU,EC,PALAMU,JHARKHAND,06:00,18:00,GOODS-SHED,1.2,1.0,BOTH,N,IR,,,N,24.538769,84.002666
KCLS,KCL SIDING SONENAGAR,DDU,EC,AURANGABAD,BIHAR,06:00,22:00,PRVT-SDNG,4.8,2.0,MANUAL,N,IR,,,N,24.882543,84.229603
KVQ,KOSIARA,DDU,EC,PALAMU,JHARKHAND,06:00,18:00,GOODS-SHED,1.8,1.0,BOTH,N,IR,,,N,24.477222,83.904658
MPO,MANPUR JN.,DDU,EC,GAYA,BIHAR,,,CRT,8.8,,,,IR,,,,24.80677333,85.04467733
NBCC,BHARTIYA RAIL BIJLEE COMPANY LIMITED,DDU,EC,AURANGABAD,BIHAR,,,PRVT-SDNG,4.5,1.0,MECHANICAL,N,IR,,,N,24.653804,84.093904
NBG,NABENAGAR ROAD,DDU,EC,AURANGABAD,BIHAR,06:00,18:00,GOODS-SHED,3.9,,,,,,,,24.65417556,84.09474667
NPGA,NABINAGAR SUPER THERMAL POWER STATION SIDING SRVD BY ANKORAH,DDU,EC,AURANGABAD,BIHAR,00:00,23:59,PRVT-SDNG,2.6,1.0,MECHANICAL,N,IR,,,N,24.761407,84.169779
PHE,PAHALEJA,DDU,EC,ROHTAS,BIHAR,06:00,22:00,CRT,8.1,3.0,MANUAL,Y,IR,,,N,24.932817,84.146147
PSE,PUSAULI,DDU,EC,KAIMUR (BHABUA),BIHAR,,,GOODS-SHED,1.8,1.0,MANUAL,N,IR,,,N,25.09718889,83.72293333
PSFI,"FCI SDG, GAYA",DDU,EC,GAYA,BIHAR,06:00,22:00,PRVT-SDNG,1.0,4.0,MANUAL,N,FCI,,,N,24.804188,84.999504
SEB,SON NAGAR JN.,DDU,EC,AURANGABAD,BIHAR,06:00,18:00,GOODS-SHED,2.2,1.0,MANUAL,,IR,,,Y,24.882543,84.229603
SSM,SASARAM,DDU,EC,ROHTAS,BIHAR,06:00,18:00,GOODS-SHED,5.0,,MANUAL,N,IR,,,N,24.95638667,84.01891556
ACSK,ANGARPATHRA COLLIERY SIDING KATRASGARH,DHN,EC,DHANBAD,JHARKHAND,,,PRVT-SDNG,1.4,2.0,MECHANICAL,N,BCCL,,,N,23.795987,86.302629
AFSN,ALMOHRI WHARFWALL NCL SIDING,DHN,EC,SONBHADRA,UTTAR PRADESH,06:00,18:00,PRVT-SDNG,6.0,,,,,,,,24.122534,82.705393
ATPS,"ANPARA THERMAL POWER STATION SDG, KRISHNA SHILA",DHN,EC,SONBHADRA,UTTAR PRADESH,00:00,23:59,PRVT-SDNG,5.5,4.0,MECHANICAL,N,UPEB,BCSK,,Y,24.1545854,82.7680564
BCBM,BALUMATH CCL SIDING,DHN,EC,LATEHAR,JHARKHAND,06:00,22:00,PRVT-SDNG,2.9,4.0,MECHANICAL,N,IR,,,N,23.681158,84.740124
BCFG,GRASIM INDUSTRIES LIMITED,DHN,EC,PALAMU,JHARKHAND,00:00,23:59,PRVT-SDNG,4.1,2.0,MECHANICAL,Y,IR,,,Y,24.214639,83.885336
BCSK,BINA COLLERY SIDING,DHN,EC,SONBHADRA,UTTAR PRADESH,,,PRVT-SDNG,3.3,3.0,MECHANICAL,N,NCL,KRLR,,N,24.1545854,82.7680564
BCSR,BACHRA SDG AT RAY,DHN,EC,CHATRA,JHARKHAND,00:00,23:59,PRVT-SDNG,8.1,2.0,MECHANICAL,N,IR,,,N,23.689962,85.077696
BES,BES,DHN,EC,KODERMA,JHARKHAND,06:00,18:00,GOODS-SHED,5.3,4.0,,N,IR,,,N,23.90559,85.32434
BHKD,BHURKUNDA,DHN,EC,RAMGARH,JHARKHAND,06:00,18:00,CRT,5.5,,MECHANICAL,N,IR,,,N,23.63711111,85.37208333
BIRT,BIRATOLI,DHN,EC,LATEHAR,JHARKHAND,06:00,22:00,GOODS-SHED,3.3,4.0,BOTH,N,IR,,,N,23.681158,84.740124
BLBT,"BIRATOLI, LINE NO.1",DHN,EC,LATEHAR,JHARKHAND,06:00,22:00,GOODS-SHED,5.5,1.0,BOTH,N,IR,,,N,23.681158,84.740124
BLCB,BALUMATH LINE NO-1 CCL SIDING,DHN,EC,LATEHAR,JHARKHAND,06:00,22:00,PRVT-SDNG,5.0,4.0,MECHANICAL,N,IR,,,N,23.681158,84.740124
BLCC,"BUKRU, LINE NO. 1 CCL SIDING",DHN,EC,LATEHAR,JHARKHAND,06:00,22:00,PRVT-SDNG,1.1,4.0,BOTH,N,IRCO,,,N,23.681158,84.740124
BLCL,"BUKRU, LINE NO. 4 CCL SIDING",DHN,EC,LATEHAR,JHARKHAND,06:00,22:00,PRVT-SDNG,5.5,4.0,MECHANICAL,N,IR,,,N,23.681158,84.740124
BNDG,BANDAG SIDING,DHN,EC,HAZARIBAGH,JHARKHAND,06:00,18:00,RLY-SDNG,4.7,2.0,MANUAL,N,IR,,,N,23.995,85.3667
BNF,BANDHUA,DHN,EC,GAYA,BIHAR,06:30,18:30,GOODS-SHED,9.5,,MANUAL,N,IR,,,N,24.752353,85.066277
BRMO,BERMO,DHN,EC,BOKARO,JHARKHAND,06:00,22:00,GOODS-SHED,2.9,2.0,BOTH,N,IR,,,N,23.772778,85.956173
BSDC,BIRDS SOUNDA-D COLLIERY SIDING PATRATU,DHN,EC,RAMGARH,JHARKHAND,00:00,23:59,PRVT-SDNG,3.4,2.0,MECHANICAL,N,IR,,,N,23.667324,85.306177
BTPB,"BOKARO THERMAL POWER SDG, BERMO",DHN,EC,BOKARO,JHARKHAND,00:00,23:59,PRVT-SDNG,8.4,2.0,BOTH,N,DVC,,,Y,23.772778,85.956173
BWWL,BINA WHRFWALL SIDING,DHN,EC,SONBHADRA,UTTAR PRADESH,,,PRVT-SDNG,1.7,1.0,MECHANICAL,N,NCL,BCSK,,N,24.1545854,82.7680564
BXLL,BILLI JN.,DHN,EC,SONBHADRA,UTTAR PRADESH,,,GOODS-SHED,7.6,2.0,MECHANICAL,N,IR,RNQ,,N,24.461937,83.019173
CCSP,CHASNALA COLLIERY SIDING PATHERDIH,DHN,EC,DHANBAD,JHARKHAND,00:00,23:59,PRVT-SDNG,5.6,2.0,MANUAL,N,TAFE,,,N,23.6751946,86.4342302
CCSR,CHURI SDG AT RAY,DHN,EC,RANCHI,JHARKHAND,00:00,23:59,PRVT-SDNG,1.5,2.0,MECHANICAL,N,IR,,,N,23.689962,85.077696
CHRI,CHARHI,DHN,EC,HAZARIBAGH,JHARKHAND,06:00,22:00,GOODS-SHED,5.1,4.0,MECHANICAL,N,IR,,,N,23.8422,85.44182
CKWP,C K WEST COLLIERY SIDING PATHERDIH,DHN,EC,DHANBAD,JHARKHAND,00:00,23:59,PRVT-SDNG,7.5,2.0,MANUAL,N,BCCL,,,N,23.6751946,86.4342302
CNPR,CHAINPUR,DHN,EC,RAMGARH,JHARKHAND,,,GOODS-SHED,2.6,7.0,MANUAL,N,IR,,,N,23.730227,85.583352
CNPR,CHAINPUR,DHN,EC,RAMGARH,JHARKHAND,,,GOODS-SHED,9.3,7.0,MANUAL,N,IR,,,N,23.730227,85.583352
CSCP,CENTRAL SOUNDA COLLIERY SIDING PATRATU,DHN,EC,RAMGARH,JHARKHAND,00:00,23:59,PRVT-SDNG,5.0,2.0,MECHANICAL,N,IR,,,N,23.667324,85.306177
CTPS,"THERMAL POWER STN. SDG, CHANDRAPURA(CRP)",DHN,EC,BOKARO,JHARKHAND,00:00,23:59,PRVT-SDNG,1.7,5.0,BOTH,N,DVC,,,Y,23.75840842,86.16159797
DBYC,DUGDA LINE NO.3 BOX YARD PUBLIC SIDING,DHN,EC,BOKARO,JHARKHAND,00:00,23:59,RLY-SDNG,4.0,1.0,MANUAL,N,IR,,,N,23.75840842,86.16159797
DCSK,DAKRA MANUAL SDG,DHN,EC,RANCHI,JHARKHAND,00:00,23:59,PRVT-SDNG,9.2,1.0,MECHANICAL,N,IR,,,N,23.650735,85.001307
DCSN,DUDHI CHUA SIDING SHAKTI NAGAR,DHN,EC,SONBHADRA,UTTAR PRADESH,00:00,23:59,PRVT-SDNG,1.3,4.0,MECHANICAL,N,NCL,DCSN,,N,24.124822,82.694263
DDCW,DUGDA COAL WASHERY SIDING,DHN,EC,BOKARO,JHARKHAND,00:00,23:59,PRVT-SDNG,3.6,4.0,BOTH,N,BCCL,,,N,23.755496,86.119595
DGSC,DUGDA (LINE NO.-2) PUBLIC SIDING,DHN,EC,BOKARO,JHARKHAND,,,RLY-SDNG,9.1,2.0,MANUAL,N,IR,,,N,23.75840842,86.16159797
DHN,DHANBAD JN.,DHN,EC,DHANBAD,JHARKHAND,06:00,22:00,CRT,6.8,15.0,MANUAL,Y,IR,,,Y,23.7918081,86.4285121
DNCS,DHORI /N S D COLLIERY SIDING PHUSRO,DHN,EC,BOKARO,JHARKHAND,,,PRVT-SDNG,3.1,2.0,MECHANICAL,N,CCL,PUS,,N,23.767829,86.01059
DNSD,"DHORI NSD COLLY. SIDING,PHUSRO, LINE NO. II",DHN,EC,BOKARO,JHARKHAND,,,PRVT-SDNG,6.4,2.0,MECHANICAL,N,CCL,PUS,,N,23.767829,86.01059
DPSC,DUGDA LINE NO.5 PUBLIC SIDING,DHN,EC,BOKARO,JHARKHAND,00:00,23:59,RLY-SDNG,7.6,1.0,MANUAL,N,IR,,,N,23.75840842,86.16159797
DTO,DALTONGANJ,DHN,EC,PALAMU,JHARKHAND,06:00,22:00,GOODS-SHED,8.8,6.0,MANUAL,N,IR,,,N,24.03338889,84.07452778
DUGD,DUGDA COAL WASHERY,DHN,EC,BOKARO,JHARKHAND,00:00,23:59,PRVT-SDNG,2.3,7.0,MECHANICAL,N,BCCL,DGSC,,N,23.75840842,86.16159797
DWWS,DUDHICHUA WHRFWALL SIDING,DHN,EC,SONBHADRA,UTTAR PRADESH,00:00,23:59,PRVT-SDNG,2.3,2.0,MECHANICAL,N,NCL,BCSK,,N,24.124822,82.694263
FCD,"FCI SDG DHN SDG, DHANBAD JN.",DHN,EC,DHANBAD,JHARKHAND,06:00,20:00,PRVT-SDNG,1.5,2.0,MANUAL,,FCI,,,N,23.791196,86.429186
GCNM,GORBI BLOCK-B CHP NCL SDG,DHN,EC,SINGRAULI,MADHYA PRADESH,06:00,18:00,PRVT-SDNG,9.3,,,,,,,,24.210039,82.587986
GCSP,GIDDI 'A' COLLIERY SIDING PATRATU,DHN,EC,HAZARIBAGH,JHARKHAND,00:00,23:59,PRVT-SDNG,6.3,2.0,MECHANICAL,,IR,,,N,23.667324,85.306177
GCWP,GIDDI COAL WASHERY SIDING,DHN,EC,HAZARIBAGH,JHARKHAND,00:00,23:59,PRVT-SDNG,5.0,2.0,MECHANICAL,N,IR,,,N,23.667324,85.306177
GHD,GARWA ROAD JN.,DHN,EC,PALAMU,JHARKHAND,,,GOODS-SHED,2.8,7.0,,N,IR,,,Y,24.214762,83.885533
GHD,GARWA ROAD JN.,DHN,EC,PALAMU,JHARKHAND,,,GOODS-SHED,3.2,7.0,,N,IR,,,Y,24.214762,83.885533
GHQ,GARHWA,DHN,EC,GARHWA,JHARKHAND,06:00,18:00,GOODS-SHED,6.9,2.0,MECHANICAL,N,IR,,,N,24.175686,83.813617
GMO,NETAJI SUBHASH CHANDRA BOSE JUNCTION GOMOH,DHN,EC,DHANBAD,JHARKHAND,06:00,18:00,GOODS-SHED,4.6,20.0,MANUAL,N,IR,,,N,23.8718,86.1528
GRRK,GARERIA PUBLIC SIDING,DHN,EC,DHANBAD,JHARKHAND,,,RLY-SDNG,5.1,1.0,MANUAL,N,BCCL,,,Y,23.790411,86.411719
HACG,HINDALCO INDUSTRIES LTD.,DHN,EC,SONBHADRA,UTTAR PRADESH,00:00,23:59,PRVT-SDNG,9.5,7.0,BOTH,N,ADIT,,,Y,24.203308,83.039646
HUGS,HINDUSTAN URVARAK AND RASAYAN LTD GCT (HURL),DHN,EC,DHANBAD,JHARKHAND,,,PRVT-SDNG,7.3,,,,,,,,23.66143,86.48021
HZBN,HAZARIBAGH TOWN,DHN,EC,HAZARIBAGH,JHARKHAND,06:00,18:00,GOODS-SHED,1.1,1.0,MANUAL,N,IR,,,N,23.983451,85.340217
HZD,HAZARIBAGH ROAD,DHN,EC,HAZARIBAGH,JHARKHAND,06:00,18:00,GOODS-SHED,1.6,1.0,MANUAL,Y,IR,,,N,24.174923,85.89193
JAN,JARANGDIH,DHN,EC,BOKARO,JHARKHAND,,,PRVT-SDNG,9.5,,,,,,,,23.76997517,85.92735383
JCSP,JGB NO.6 COLLIERY SIDING,DHN,EC,DHANBAD,JHARKHAND,,,PRVT-SDNG,6.5,2.0,MANUAL,N,BCCL,,,N,23.6751946,86.4342302
JCSS,JAYANTH COLLIERY SIDING,DHN,EC,SONBHADRA,UTTAR PRADESH,06:00,18:00,PRVT-SDNG,3.3,2.0,MECHANICAL,N,NCL,,,N,24.124822,82.694263
JCZ,JINGURDAHA,DHN,EC,SINGRAULI,MADHYA PRADESH,,,PRVT-SDNG,2.9,2.0,MECHANICAL,N,NCL,,,N,24.204287,82.642765
JNCP,JINAGORAL / NO 9 COLLIERY SIDING PATHERDIH,DHN,EC,DHANBAD,JHARKHAND,00:00,23:59,PRVT-SDNG,4.3,2.0,MANUAL,N,BCCL,,,N,23.6751946,86.4342302
JNCS,M/S JAYANT SILO GCT OF NCL,DHN,EC,SONBHADRA,UTTAR PRADESH,00:00,23:59,PRVT-SDNG,5.7,,,,,,,,24.124822,82.694263
JRGD,JARANGDIH LINE NO. II,DHN,EC,BOKARO,JHARKHAND,,,PRVT-SDNG,4.6,2.0,MECHANICAL,N,CCL,JRGD,,N,23.769793,85.92905
JSPP,M/S JINDAL STEELAND POWER LTD. PVT. SIDING,DHN,EC,RAMGARH,JHARKHAND,00:00,23:59,PRVT-SDNG,8.0,2.0,MECHANICAL,N,IR,,,N,23.667324,85.306177
KASN,"KHALARI SSTT. SDG. NO, 1, KHALARI",DHN,EC,RAMGARH,JHARKHAND,00:00,23:59,PRVT-SDNG,6.3,2.0,MECHANICAL,N,IR,,,N,23.650735,85.001307
KCCJ,KONAR CCL SIDING,DHN,EC,BOKARO,JHARKHAND,,,PRVT-SDNG,4.5,,,,,,,,23.76997517,85.92735383
KDOS,M/S K.D.(OLD) SIDING,DHN,EC,RANCHI,JHARKHAND,,,PRVT-SDNG,4.0,2.0,MECHANICAL,N,IR,,,N,23.650735,85.001307
KDSK,M/S KUSUNDA SIDING,DHN,EC,DHANBAD,JHARKHAND,06:00,22:00,PRVT-SDNG,4.3,2.0,MECHANICAL,N,BCCL,KDS,,N,23.790411,86.411719
KDSN,"K. D. HESLONG SIDING, LINE NO. II",DHN,EC,RANCHI,JHARKHAND,,,PRVT-SDNG,9.6,2.0,MECHANICAL,N,IR,,,N,23.650735,85.001307
KGCK,KESARGARH COLLIERY SIDING KATRASGARH,DHN,EC,DHANBAD,JHARKHAND,00:00,23:59,PRVT-SDNG,7.8,2.0,MANUAL,N,BCCL,,,N,23.795987,86.302629
KGLI,KARGALI SIDING,DHN,EC,BOKARO,JHARKHAND,00:00,23:59,PRVT-SDNG,3.4,2.0,MECHANICAL,N,CCL,PUS,,N,23.767829,86.01059
KKAS,KATKAMASANDI,DHN,EC,KODERMA,JHARKHAND,06:00,18:00,GOODS-SHED,7.2,1.0,BOTH,N,IR,,,N,24.122368,85.198461
KLRE,KHALARI,DHN,EC,RANCHI,JHARKHAND,,,GOODS-SHED,7.0,10.0,MECHANICAL,N,IR,,,N,23.650802,85.001292
KNSP,KUJU NEW SIDING,DHN,EC,KODERMA,JHARKHAND,,,PRVT-SDNG,4.9,2.0,MECHANICAL,N,IR,,,N,23.725529,85.502467
KPSH,M/S KODERMA THERMAL POWER STATION SIDING,DHN,EC,KODERMA,JHARKHAND,,,PRVT-SDNG,2.2,2.0,BOTH,N,DVC,,,Y,24.38271,85.596328
KRSL,KRISHNA SHILA,DHN,EC,SONBHADRA,UTTAR PRADESH,,,GOODS-SHED,4.3,2.0,MECHANICAL,N,IR,BCSK,,N,24.157396,82.767272
KSCK,KRISHNASHILA CHP SIDING,DHN,EC,SONBHADRA,UTTAR PRADESH,,,PRVT-SDNG,9.3,,,,,,,,24.157396,82.767272
KSDK,KUSUNDA COLLIERY SIDING.,DHN,EC,DHANBAD,JHARKHAND,00:00,23:59,PRVT-SDNG,4.0,1.0,MECHANICAL,N,BCCL,,,N,23.790411,86.411719
KSNT,BROWN FILED PFT OF M/S KHALARI CEMENTS LIMITED,DHN,EC,RANCHI,JHARKHAND,00:00,23:59,PFT,3.9,2.0,BOTH,N,IRI,,,N,23.650735,85.001307
KTWY,KATHARA WASHERY,DHN,EC,BOKARO,JHARKHAND,00:00,23:59,PRVT-SDNG,1.2,2.0,MECHANICAL,N,CCL,KTWY,,N,23.769793,85.92905
KUHM,KUSMAHI,DHN,EC,LATEHAR,JHARKHAND,06:00,22:00,GOODS-SHED,9.8,4.0,BOTH,N,IR,,,N,23.681158,84.740124
KUJU,KUJU,DHN,EC,KODERMA,JHARKHAND,06:00,22:00,GOODS-SHED,8.3,5.0,MECHANICAL,N,IR,,,N,23.72419,85.50272
KWJP,KARGALI WASHERY SIDING PF-II,DHN,EC,BOKARO,JHARKHAND,06:00,22:00,PRVT-SDNG,1.2,3.0,MECHANICAL,N,CCL,PUS,,N,23.767829,86.01059
KWKL,KAKRI WHARFWALL SIDING,DHN,EC,SONBHADRA,UTTAR PRADESH,,,PRVT-SDNG,5.1,,,,,,,,24.157396,82.767272
LAKS,LANCO ANPARA (ANPARA C) TPS PVT. SDG.,DHN,EC,SONBHADRA,UTTAR PRADESH,06:00,22:00,PRVT-SDNG,9.6,2.0,MECHANICAL,N,LANC,,,N,24.1545854,82.7680564
LTBK,"LINE NO.10,BARKAKANA",DHN,EC,RAMGARH,JHARKHAND,06:00,18:00,GOODS-SHED,3.4,1.0,MECHANICAL,N,IR,BRKA,,N,23.624119,85.469513
MDMD,MAHADEIYA LINE NO.5,DHN,EC,SINGRAULI,MADHYA PRADESH,06:00,18:00,GOODS-SHED,3.9,1.0,MECHANICAL,N,IR,BRGW,,N,24.208925,82.592983
MESR,MESRA,DHN,EC,RANCHI,JHARKHAND,06:00,18:00,GOODS-SHED,8.1,1.0,MANUAL,N,IR,,,N,23.369835,85.435696
MLMD,MAHADEIYA LINE NO.4,DHN,EC,SINGRAULI,MADHYA PRADESH,06:00,18:00,GOODS-SHED,5.4,1.0,MECHANICAL,N,IR,MHDA,,N,24.208925,82.592983
MMRC,"M/S MINERALS AND MINERALS LTD,  RICHUGHUTA",DHN,EC,LATEHAR,JHARKHAND,00:00,23:59,PRVT-SDNG,7.4,2.0,BOTH,N,IR,,,N,23.659619,84.58065
MQX,MERALGRAM,DHN,EC,GARHWA,JHARKHAND,00:00,23:59,GOODS-SHED,7.5,5.0,BOTH,N,IR,,,N,24.197345,83.709878
NGRH,NEW GIRIDIH,DHN,EC,GIRIDIH,JHARKHAND,06:00,22:00,GOODS-SHED,5.7,2.0,BOTH,N,IR,,,N,24.434491,85.529208
NRCC,NORTH RAMGARH COLLIERY SIDING CHAINPUR,DHN,EC,RAMGARH,JHARKHAND,00:00,23:59,PRVT-SDNG,4.7,1.0,BOTH,N,IR,,,N,23.730041,85.583153
NUGP,NORTH URIMARI GCT OF CCL,DHN,EC,RAMGARH,JHARKHAND,06:00,18:00,PRVT-SDNG,4.5,,,,,,,,23.66705556,85.30577778
NUQ,NAGARUNTARI,DHN,EC,GARHWA,JHARKHAND,,,GOODS-SHED,2.1,3.0,MECHANICAL,N,IR,,,N,24.285345,83.513775
NWSI,NAWAL SAHI HALT,DHN,EC,KODERMA,JHARKHAND,06:00,22:00,GOODS-SHED,9.0,1.0,MANUAL,,IR,,,N,24.434491,85.529208
NWSN,NIGAHI WHARFWALL NCL SIDING,DHN,EC,SONBHADRA,UTTAR PRADESH,06:00,18:00,PRVT-SDNG,9.6,,,,,,,,24.122534,82.705393
OSBK,"OLD SICK LINE,BARKAKANA",DHN,EC,RAMGARH,JHARKHAND,06:00,18:00,GOODS-SHED,7.8,,MECHANICAL,N,IR,BRKA,,N,23.624119,85.469513
OTPS,"OBRA THERMAL POWER STN,  OBRADAM",DHN,EC,SONBHADRA,UTTAR PRADESH,00:00,23:59,PRVT-SDNG,1.1,4.0,MECHANICAL,N,UPEB,,,Y,24.439101,82.976389
PADH,PIPRADIH.,DHN,EC,KODERMA,JHARKHAND,06:00,22:00,GOODS-SHED,9.4,1.0,MANUAL,N,IR,,,N,24.39064,85.49376
PBLP,PHULBASIA LINE NO.1 CCL,DHN,EC,LATEHAR,JHARKHAND,06:00,22:00,PRVT-SDNG,9.2,4.0,MECHANICAL,N,IR,,,N,23.681158,84.740124
PCCS,PATHERDIH COAL WASHERY PATHERDIH,DHN,EC,DHANBAD,JHARKHAND,00:00,23:59,PRVT-SDNG,3.1,,,,BCCL,,,,23.6751946,86.4342302
PEH,PATHARDIH JN.,DHN,EC,DHANBAD,JHARKHAND,,,GOODS-SHED,4.4,7.0,BOTH,N,IR,,,N,23.673615,86.433582
PICS,IOC LTD. JAYANT  SHAKTINAGAR,DHN,EC,SONBHADRA,UTTAR PRADESH,00:00,23:59,PRVT-SDNG,1.1,2.0,MECHANICAL,N,IOC,,,Y,24.124822,82.694263
PIDH,"POL SIDING, DHANBAD",DHN,EC,DHANBAD,JHARKHAND,06:00,22:00,PRVT-SDNG,6.7,2.0,MANUAL,N,OIL,,,Y,23.791196,86.429186
PKCI,M/S GRASIM INDUSTRIES LIMITED,DHN,EC,SONBHADRA,UTTAR PRADESH,00:00,23:59,PRVT-SDNG,6.6,2.0,BOTH,N,ADIT,,,Y,24.203308,83.039646
PLCP,PHULBASIA LINE NO.4 CCL,DHN,EC,LATEHAR,JHARKHAND,06:00,22:00,PRVT-SDNG,7.7,1.0,MECHANICAL,N,IR,,,N,23.681158,84.740124
PNWP,PATHERDIH NLW WASHERY SIDING,DHN,EC,DHANBAD,JHARKHAND,,,PRVT-SDNG,8.2,,,,,,,,23.673615,86.433582
PSBS,"BHAVANATHPUR LIME AND STONE SDG, MERALGRAM",DHN,EC,GARHWA,JHARKHAND,00:00,23:59,PRVT-SDNG,3.5,3.0,MECHANICAL,N,SAIL,,,N,24.19726,83.709984
PSJA,"JARANDIN PVT. SDG, JARANGDIH",DHN,EC,BOKARO,JHARKHAND,00:00,23:59,PRVT-SDNG,6.2,2.0,MECHANICAL,N,CCL,PSJA,,N,23.769793,85.92905
PTPS,"THERMAL POWER HOUSE,  PATRATU",DHN,EC,RAMGARH,JHARKHAND,00:00,23:59,PRVT-SDNG,9.4,1.0,MECHANICAL,N,IR,,,N,23.667324,85.306177
PTRU,PATRATU,DHN,EC,RAMGARH,JHARKHAND,06:00,18:00,CRT,7.1,,MECHANICAL,N,IR,PTRU,,N,23.66705556,85.30577778
PUS,PHUSRO,DHN,EC,BOKARO,JHARKHAND,,,GOODS-SHED,8.6,7.0,BOTH,Y,IR,,,N,23.76758833,86.00972283
RAY,RAY,DHN,EC,HAZARIBAGH,JHARKHAND,,,GOODS-SHED,3.5,8.0,,N,IR,,,N,23.679558,85.059967
RDML,RAJDHAR SIDING,DHN,EC,CHATRA,JHARKHAND,06:00,22:00,PRVT-SDNG,7.3,2.0,MECHANICAL,N,IR,,,N,23.652151,84.941225
RHR,RAJHURA,DHN,EC,PALAMU,JHARKHAND,06:00,18:00,GOODS-SHED,8.6,5.0,MANUAL,N,IR,,,N,24.15497222,84.01552778
RINS,"NTPC SDG  RIHAND SUPER THERMAL WORKS PLANT, SHAKTINAGAR",DHN,EC,SONBHADRA,UTTAR PRADESH,00:00,23:59,PRVT-SDNG,6.0,12.0,MECHANICAL,N,NTPC,,,Y,24.124822,82.694263
RLCM,RAJDHAR LINE NO.2 CCL SDG.,DHN,EC,RANCHI,JHARKHAND,06:00,22:00,PRVT-SDNG,6.8,2.0,MECHANICAL,N,IR,,,N,23.652151,84.941225
RNQ,RENUKUT,DHN,EC,SONBHADRA,UTTAR PRADESH,06:00,18:00,GOODS-SHED,6.6,7.0,MECHANICAL,N,IR,MQX,,N,24.203071,83.03981
RSCM,RAJDHAR SILO LINE CCL SDG.,DHN,EC,RANCHI,JHARKHAND,06:00,22:00,PRVT-SDNG,6.1,1.0,MECHANICAL,N,IR,,,N,23.652151,84.941225
RSCR,RAJHAURA COLIERY SIDING,DHN,EC,PALAMU,JHARKHAND,06:00,18:00,RLY-SDNG,8.4,2.0,MECHANICAL,N,IR,,,N,24.15482,84.01597
SBKT,SENDRA BANSJORA COLLIERY SIDING,DHN,EC,DHANBAD,JHARKHAND,,,PRVT-SDNG,1.0,1.0,MANUAL,N,BCCL,,,N,23.790411,86.411719
SCPT,SIRKA COLLIERY SIDING PATRATU,DHN,EC,RAMGARH,JHARKHAND,00:00,23:59,PRVT-SDNG,4.1,2.0,MECHANICAL,N,IR,,,N,23.667324,85.306177
SCSC,SARUBERA COLLIERY SIDING CHAINPUR,DHN,EC,RAMGARH,JHARKHAND,00:00,23:59,PRVT-SDNG,7.4,1.0,BOTH,N,IR,,,N,23.730041,85.583153
SCW,SWANG COAL WASHERY,DHN,EC,BOKARO,JHARKHAND,00:00,23:59,PRVT-SDNG,2.6,2.0,MECHANICAL,N,CCL,SCW,,N,23.7853803,85.8758082
SDWR,SIDHWAR,DHN,EC,RAMGARH,JHARKHAND,06:00,18:00,GOODS-SHED,8.3,2.0,MANUAL,N,IR,,,N,23.58613,85.48096
SGK,SOUTH GOVINDPUR SDNG,DHN,EC,DHANBAD,JHARKHAND,,,PRVT-SDNG,1.4,2.0,MECHANICAL,N,BCCL,,,N,23.795987,86.302629
SGRL,SINGRAULI,DHN,EC,SINGRAULI,MADHYA PRADESH,,,GOODS-SHED,9.9,1.0,MECHANICAL,N,IR,SGRL,,N,24.204158,82.642905
SKTN,SHAKTINAGAR,DHN,EC,SONBHADRA,UTTAR PRADESH,06:00,18:00,GOODS-SHED,1.8,7.0,MECHANICAL,N,IR,,,N,24.122534,82.705393
SLBN,SALAI BANWA,DHN,EC,SONBHADRA,UTTAR PRADESH,,,GOODS-SHED,6.8,7.0,MECHANICAL,N,IR,,,N,24.43833,83.010157
SLCS,SHIVPOOR LINE NO.1 CCL SIDING,DHN,EC,CHATRA,JHARKHAND,06:00,22:00,PRVT-SDNG,3.0,4.0,MECHANICAL,N,IR,,,N,23.681158,84.740124
SLSP,SHIVPOOR LINE NO.4 CCL SIDING,DHN,EC,CHATRA,JHARKHAND,06:00,22:00,PRVT-SDNG,4.3,4.0,MECHANICAL,N,IR,,,N,23.681158,84.740124
SNFC,"ASSOCIATED CEMENT COMPANY SDG SINDHRI, PRADHANKHUNTA JN.",DHN,EC,DHANBAD,JHARKHAND,00:00,23:59,PRVT-SDNG,7.4,5.0,BOTH,Y,ACCL,,,N,23.666695,86.465836
SNMY,SINDRI MARSHALLING YARD HALT,DHN,EC,DHANBAD,JHARKHAND,06:00,22:00,GOODS-SHED,5.2,5.0,MANUAL,N,IR,,,N,23.6683,86.46058
SPUS,SPUR LINE NO.II,DHN,EC,SINGRAULI,MADHYA PRADESH,00:00,23:59,PRVT-SDNG,9.1,1.0,MECHANICAL,N,NCL,,,N,24.204287,82.642765
SPXS,SPUR X PUBLIC SIDING,DHN,EC,SINGRAULI,MADHYA PRADESH,,,GOODS-SHED,6.8,1.0,MECHANICAL,N,IR,SAPE,,N,24.204287,82.642765
SSCK,SIJUA STABLING COLLIERY SIDING KATRASGARH,DHN,EC,DHANBAD,JHARKHAND,06:00,22:00,PRVT-SDNG,3.9,2.0,MECHANICAL,N,BCCL,KDS,,N,23.795987,86.302629
SSCS,SHIVPOOR SHUNTING NECK CCL SIDING,DHN,EC,CHATRA,JHARKHAND,00:00,23:59,PRVT-SDNG,1.6,4.0,MECHANICAL,Y,IR,,,N,23.681158,84.740124
SSMN,SPUR SIDING,DHN,EC,SINGRAULI,MADHYA PRADESH,00:00,23:59,PRVT-SDNG,1.2,1.0,MECHANICAL,N,NCL,,,N,24.204287,82.642765
SSTP,"SINGRAULI SUPER  THERMAL STN. SDG, SHAKTINAGAR",DHN,EC,SONBHADRA,UTTAR PRADESH,00:00,23:59,PRVT-SDNG,2.8,2.0,MECHANICAL,N,NTPC,,,Y,24.124822,82.694263
TAST,TORI ASSISTED SIDING,DHN,EC,RAMGARH,JHARKHAND,06:00,22:00,PRVT-SDNG,7.7,2.0,MECHANICAL,N,IR,,,N,23.681158,84.740124
TCSB,TARMI COLLIERY SIDING BHANDARIDAH,DHN,EC,BOKARO,JHARKHAND,00:00,23:59,PRVT-SDNG,2.3,3.0,MECHANICAL,N,CCL,TCSB,,N,23.756282,86.06432
TET,TETULMARI,DHN,EC,DHANBAD,JHARKHAND,06:00,22:00,GOODS-SHED,1.8,5.0,MANUAL,N,IR,,,N,23.814441,86.34357
TORI,TORI,DHN,EC,LATEHAR,JHARKHAND,06:00,22:00,GOODS-SHED,2.7,1.0,BOTH,N,IR,,,N,23.68144,84.740086
TPST,TORI PUBLIC SIDING,DHN,EC,LATEHAR,JHARKHAND,,,RLY-SDNG,4.8,2.0,MECHANICAL,N,IR,,,N,23.681158,84.740124
TTPD,TENUGHAT THERMAL POWER STATION SIDING,DHN,EC,BOKARO,JHARKHAND,06:00,22:00,PRVT-SDNG,9.3,2.0,MECHANICAL,N,IR,,,N,23.807334,85.766144
UCLS,ULTRA TECH CEMENT LTD. UNIT:DALLA CEMENT WORKS,DHN,EC,SONBHADRA,UTTAR PRADESH,00:00,23:59,PRVT-SDNG,2.1,5.0,BOTH,N,ADIT,,,N,24.426676,83.009434
VSTP,"VINDHYACHAL SUPER THERMAL POWER STN. SDG, SHAKTINAGAR",DHN,EC,SONBHADRA,UTTAR PRADESH,00:00,23:59,PRVT-SDNG,8.6,5.0,MECHANICAL,N,NTPC,,,Y,24.124822,82.694263
WBCC,WEST BOKARO COLLIERY SIDING CHAINPUR,DHN,EC,RAMGARH,JHARKHAND,00:00,23:59,PRVT-SDNG,8.8,4.0,MECHANICAL,N,TALD,,,N,23.730041,85.583153
ANAH,AUNTA HALT,DNR,EC,PATNA,BIHAR,06:00,22:00,GOODS-SHED,3.3,1.0,MANUAL,N,IR,,,N,25.376911,85.962696
ARA,ARA JN.,DNR,EC,BHOJPUR,BIHAR,06:00,18:00,GOODS-SHED,7.1,2.0,MANUAL,Y,IR,,,N,25.548608,84.661637
BSPB,BARH SUPER THERMAL POWER PROJECT,DNR,EC,PATNA,BIHAR,,,PRVT-SDNG,8.0,7.0,BOTH,Y,NTPC,,,N,25.46172,85.709496
BXR,BUXAR,DNR,EC,BUXAR,BIHAR,06:00,18:00,GOODS-SHED,9.0,2.0,MANUAL,N,IR,,,N,25.561607,83.981724
CKH,CHAKAND,DNR,EC,GAYA,BIHAR,00:00,23:59,CRT,8.5,,,,,,,,24.89028,84.99564
DHA,DHEENA,DNR,EC,CHANDAULI,UTTAR PRADESH,06:00,18:00,GOODS-SHED,3.5,,,,,,,,25.354032,83.422709
DNR,DANAPUR,DNR,EC,PATNA,BIHAR,06:00,18:00,CRT,9.0,3.0,MANUAL,N,IR,,,N,25.582156,85.044494
DURE,DUMRAON,DNR,EC,BUXAR,BIHAR,06:00,18:00,GOODS-SHED,2.1,,,,,,,,25.57162,84.143797
FCMI,FCI SIDING MOKAMA,DNR,EC,PATNA,BIHAR,00:00,23:59,PRVT-SDNG,5.6,2.0,MANUAL,Y,FCI,,,N,25.392265,85.913429
FCON,CONTAINER SIDING FATUHA,DNR,EC,PATNA,BIHAR,06:00,22:00,PRVT-SDNG,4.0,2.0,BOTH,N,CONR,,,N,25.5017,85.305748
FCPD,"FCI PVT SDG, PHULWARI SHARIF",DNR,EC,PATNA,BIHAR,06:00,22:00,PRVT-SDNG,7.3,2.0,MANUAL,Y,FCI,,,N,25.582201,85.044909
FFSB,"FCI SDG,  BUXAR",DNR,EC,BUXAR,BIHAR,06:00,22:00,PRVT-SDNG,6.3,2.0,MANUAL,Y,FCI,,,N,25.561607,83.981724
FUT,FATUHA,DNR,EC,PATNA,BIHAR,06:00,18:00,CRT,4.9,4.0,BOTH,N,IR,,,N,25.5030663,85.303891
HPSB,HPCL POL SIDING,DNR,EC,PATNA,BIHAR,,,PRVT-SDNG,3.2,2.0,MANUAL,Y,HPC,,,Y,25.5611786,84.8743174
JAJ,JHAJHA,DNR,EC,JAMUI,BIHAR,06:00,18:00,GOODS-SHED,9.9,,,,,,,,24.77248,86.3866119
JAJB,JHAJHA BALLAST SIDING,DNR,EC,JAMUI,BIHAR,06:00,18:00,RLY-SDNG,8.5,1.0,MANUAL,N,IR,,,N,24.77248,86.3866119
JHD,JEHANABAD,DNR,EC,JEHANABAD,BIHAR,06:00,18:00,GOODS-SHED,3.4,0.5,MANUAL,N,IR,,,N,25.22506,84.990109
JMU,JAMUI,DNR,EC,JAMUI,BIHAR,06:00,18:00,GOODS-SHED,9.4,3.0,MANUAL,N,IR,,,N,24.9718313,86.255546
KIUL,KIUL JN.,DNR,EC,LAKHISARAI,BIHAR,06:00,18:00,CRT,1.9,1.0,MANUAL,N,IR,,,N,25.1717,86.10628
KRUH,KHERAUNDH,DNR,EC,NAWADA,BIHAR,06:00,22:00,GOODS-SHED,6.5,,,,,,,,24.822632,85.403376
KUA,KULHARIA,DNR,EC,BHOJPUR,BIHAR,06:00,18:00,GOODS-SHED,5.6,,,,,,,,25.568167,84.758086
LKR,LUCKEE SARAI JN.,DNR,EC,LAKHISARAI,BIHAR,06:00,18:00,GOODS-SHED,3.7,,,,IR,,,,25.171838,86.092966
MKA,MOKAMA JN.,DNR,EC,PATNA,BIHAR,06:00,18:00,GOODS-SHED,7.9,,,,,,,,25.39226389,85.91342778
MPIB,M/S PRISTINE MAGADH INFRASTRUCTURE PRIVATE LIMITED,DNR,EC,PATNA,BIHAR,06:00,22:00,PRVT-SDNG,8.3,2.0,BOTH,Y,PMLP,,,N,25.5611786,84.8743174
SHK,SHEIKH PURA,DNR,EC,SHEIKHPURA,BIHAR,06:00,18:00,GOODS-SHED,7.9,1.0,MANUAL,N,IR,,,N,25.131925,85.852413
SPES,	SHEIKHPURA PUBLIC SIDING (EXTENSION),DNR,EC,SHEIKHPURA,BIHAR,,,RLY-SDNG,8.7,,,,,,,,25.131998,85.853934
SRY,SIRARI,DNR,EC,SHEIKHPURA,BIHAR,06:00,18:00,GOODS-SHED,1.5,,,,,,,,25.133047,85.953045
UCPD,ULTRA TECH CEMENT LTD: UNIT PATLIPUTRA CEMENT WORKS,DNR,EC,PATNA,BIHAR,06:00,22:00,PRVT-SDNG,8.5,3.0,BOTH,Y,UCLH,,,N,25.4352,85.2916
WENA,WENA,DNR,EC,NALANDA,BIHAR,06:00,22:00,GOODS-SHED,3.3,2.0,MANUAL,N,IR,,,N,25.326716,85.532031
WRS,WARIS ALEGANJ,DNR,EC,NAWADA,BIHAR,06:00,18:00,GOODS-SHED,6.4,2.0,MANUAL,N,IR,,,N,25.016797,85.642912
WZJ,WAZERGANJ,DNR,EC,GAYA,BIHAR,,,GOODS-SHED,7.0,,,,,,,,24.813131,85.226047
AAGK,ADANI AGRI LOGISTICS(SAMASTIPUR) LTD - GCT,SEE,EC,SAMASTIPUR,BIHAR,06:00,18:00,PRVT-SDNG,1.6,,,,,,,,25.906174,85.672417
AYRN,AKSHAYWAT RAI NAGAR,SEE,EC,VAISHALI,BIHAR,06:00,18:00,GOODS-SHED,4.5,,,,,,,,25.688517,85.315086
BGSN,"BUFFER STORRAGE GODOWN SDG (BG), NARAYANPUR ANANT",SEE,EC,MUZAFFARPUR,BIHAR,06:00,22:00,PRVT-SDNG,9.3,5.0,MANUAL,Y,,,,N,26.1209,85.3647
BJU,BARAUNI JN.,SEE,EC,BEGUSARAI,BIHAR,08:00,22:00,GOODS-SHED,4.9,2.0,MANUAL,N,IR,DKGS,,N,25.461275,85.989529
BPNA,BHARAT PETROLEUM CORPORATION LTD. SERVED BY NARAYANPUR ANANT,SEE,EC,MUZAFFARPUR,BIHAR,00:00,23:59,PRVT-SDNG,7.3,1.0,MECHANICAL,Y,,,,Y,26.1209,85.3647
BTSS,"BARAUNI THERMAL POWER STN. SDG, SIMARIA",SEE,EC,BEGUSARAI,BIHAR,06:00,22:00,PRVT-SDNG,9.8,4.0,MANUAL,N,NTPC,DKGS,,Y,25.4112,86.0139
GHZ,GARHARA GOODS MARSHALLING YARD,SEE,EC,BEGUSARAI,BIHAR,,,GOODS-SHED,7.2,1.0,MANUAL,N,IR,DKGS,,N,25.441602,86.005492
HUBG,"HINDUSTAN URVARAK AND RASAYAN LTD, GCT (HURL)",SEE,EC,BEGUSARAI,BIHAR,,,PRVT-SDNG,5.2,,,,,,,,25.441602,86.005492
HUFP,HARAULI FATEHPUR,SEE,EC,VAISHALI,BIHAR,06:00,22:00,GOODS-SHED,7.5,,,,,,,,25.740754,85.246454
IORG,"INDIAN OIL REFINERY SDG (BG), BARAUNI JN.",SEE,EC,BEGUSARAI,BIHAR,06:00,22:00,PRVT-SDNG,9.1,6.0,BOTH,N,IOC,DKGS,,Y,25.4407,86.0053
KGG,KHAGARIA JN.,SEE,EC,KHAGARIA,BIHAR,08:00,20:00,GOODS-SHED,9.4,1.0,MANUAL,Y,IR,,,N,25.506315,86.465934
KPGM,KARPOORIGRAM,SEE,EC,SAMASTIPUR,BIHAR,09:00,17:00,GOODS-SHED,5.4,3.0,MANUAL,N,IR,,,N,25.869882,85.724258
KTRH,KATAREAH,SEE,EC,BHAGALPUR,BIHAR,,,GOODS-SHED,9.1,,,,,,,,25.400018,87.194366
KUE,KURSELA,SEE,EC,KATIHAR,BIHAR,06:00,18:00,GOODS-SHED,1.1,1.0,MANUAL,Y,IR,,,N,25.439157,87.252297
MNE,MANSI JN.,SEE,EC,KHAGARIA,BIHAR,06:00,18:00,CRT,5.9,1.0,MANUAL,Y,IR,,,N,25.509264,86.555142
NNA,NAUGACHIA,SEE,EC,BHAGALPUR,BIHAR,08:00,20:00,CRT,3.9,1.0,MANUAL,N,IR,,,N,25.384748,87.094296
NRPA,NARAYANPUR ANANT,SEE,EC,MUZAFFARPUR,BIHAR,07:00,20:00,CRT,6.0,4.0,MANUAL,Y,IR,,,N,26.088932,85.409002
NYO,NAYA GAON,SEE,EC,SARAN,BIHAR,06:00,18:00,CRT,9.0,1.0,MANUAL,N,IR,STLR,,N,25.762793,85.098896
SAI,SARAI,SEE,EC,VAISHALI,BIHAR,06:00,18:00,GOODS-SHED,8.6,1.0,MANUAL,N,IR,,,N,25.780382,85.276608
SMO,SEMAPUR,SEE,EC,KATIHAR,BIHAR,06:00,18:00,GOODS-SHED,9.6,1.0,MANUAL,N,IR,,,N,25.52499,87.469892
TIL,TILRATH,SEE,EC,BEGUSARAI,BIHAR,,,CRT,4.4,1.0,MANUAL,Y,IR,,,N,25.441765,86.066703
TUR,TURKI,SEE,EC,MUZAFFARPUR,BIHAR,07:00,21:00,GOODS-SHED,9.6,,,N,IR,,,N,26.034651,85.354929
VSHI,VAISHALI,SEE,EC,VAISHALI,BIHAR,06:00,18:00,GOODS-SHED,7.9,,,,,,,,25.740754,85.246454
AAGJ,GCT OF ADANI AGRI LOGISTICS (DARBHANGA) LIMITED,SPJ,EC,DARBHANGA,BIHAR,06:00,22:00,PRVT-SDNG,2.3,,,,,,,,26.4075,85.7455
ALUH,ALAULI,SPJ,EC,SAMASTIPUR,BIHAR,,,GOODS-SHED,2.8,,,,,,,,25.714775,86.18564667
BDMA,BUDHMA,SPJ,EC,MADHEPURA,BIHAR,,,GOODS-SHED,1.6,,,,,,,,25.90086167,86.86479167
BGDS,BHAGWANPUR DESUA,SPJ,EC,SAMASTIPUR,BIHAR,,,GOODS-SHED,9.0,,,,,,,,25.82556333,85.84760167
BHB,BADLAGHAT,SPJ,EC,KHAGARIA,BIHAR,06:00,22:00,GOODS-SHED,9.9,1.0,MANUAL,N,IR,,,N,25.5535,86.5869
BHGJ,BIHARIGANJ,SPJ,EC,MADHEPURA,BIHAR,,,GOODS-SHED,1.6,,,,,,,,25.732179,86.992235
BMKI,BAPUDHAM MOTIHARI,SPJ,EC,PURBI CHAMPARAN,BIHAR,,,GOODS-SHED,4.5,1.0,MANUAL,Y,IR,,,N,26.65503333,84.90504167
CAA,CHAKIA,SPJ,EC,PASHCHIM CHAMPARAN,BIHAR,,,CRT,7.4,1.0,MANUAL,N,IR,,,N,26.41735,85.04710333
DAG,DHANG,SPJ,EC,SITAMARHI,BIHAR,,,GOODS-SHED,5.7,,,,,,,,26.718,85.3531
DBG,DARBHANGA JN.,SPJ,EC,DARBHANGA,BIHAR,,,GOODS-SHED,2.2,1.0,MANUAL,N,IR,,,N,26.1556,85.9078
DMH,DAURAM MADHEPURA,SPJ,EC,MADHEPURA,BIHAR,,,GOODS-SHED,2.5,1.0,MANUAL,N,IR,,,N,25.90842167,86.78191333
HIR,HARINAGAR,SPJ,EC,PASHCHIM CHAMPARAN,BIHAR,,,GOODS-SHED,5.3,1.0,MANUAL,N,IR,,,N,27.1564,84.3244
HPO,HASANPUR ROAD,SPJ,EC,SAMASTIPUR,BIHAR,,,GOODS-SHED,5.1,1.0,MANUAL,N,IR,,,N,25.714775,86.18564667
IDBR,ICD BIRGANJ,SPJ,EC,PURBI CHAMPARAN,BIHAR,,,PRVT-SDNG,8.5,6.0,MECHANICAL,Y,CONR,,,N,26.986859,84.844727
IOSR,INDIAN OIL CORP. LTD. SIDING REXAUL (BG),SPJ,EC,PURBI CHAMPARAN,BIHAR,06:00,22:00,PRVT-SDNG,2.8,2.0,MECHANICAL,N,IOC,,,Y,26.986948,84.844494
JNR,JANAKPUR ROAD,SPJ,EC,SITAMARHI,BIHAR,06:00,22:00,GOODS-SHED,7.4,1.0,MANUAL,N,IR,,,N,26.469,85.70069444
JYG,JAYNAGAR,SPJ,EC,MADHUBANI,BIHAR,,,CRT,8.2,1.0,MANUAL,N,IR,,,,26.589458,86.135547
KJI,KHAJAULI,SPJ,EC,MADHUBANI,BIHAR,,,GOODS-SHED,3.0,1.0,MANUAL,N,IR,,,N,26.4847,86.1617
KPB,KHARPOKHRA,SPJ,EC,PASHCHIM CHAMPARAN,BIHAR,06:00,22:00,GOODS-SHED,3.5,0.0,MANUAL,N,IR,,,N,27.14255556,84.15252778
KTI,KANTI,SPJ,EC,MUZAFFARPUR,BIHAR,,,CRT,6.3,1.0,MANUAL,N,IR,,,N,26.19969833,85.28608167
KUMB,KUMAR BAGH,SPJ,EC,PASHCHIM CHAMPARAN,BIHAR,06:00,22:00,GOODS-SHED,9.5,1.0,MANUAL,N,IR,,,N,26.8744,84.5121
LSI,LAHERIA SARAI,SPJ,EC,DARBHANGA,BIHAR,,,GOODS-SHED,6.7,1.0,MANUAL,N,IR,,,N,26.112,85.9047
MHL,MAHWAL,SPJ,EC,MUZAFFARPUR,BIHAR,06:00,18:00,GOODS-SHED,1.2,1.0,MANUAL,N,IR,,,N,26.30168833,85.126125
MHRL,MAHRAIL,SPJ,EC,MADHUBANI,BIHAR,,,GOODS-SHED,8.9,,,,,,,,26.294031,86.284733
MKPR,MUKTAPUR,SPJ,EC,SAMASTIPUR,BIHAR,,,GOODS-SHED,8.9,1.0,MANUAL,N,IR,,,N,25.8833,85.7939
MTR,MOTIPUR,SPJ,EC,MUZAFFARPUR,BIHAR,,,GOODS-SHED,8.8,,,,,,,,26.25709333,85.168875
NKE,NARKATIAGANJ JN.,SPJ,EC,PASHCHIM CHAMPARAN,BIHAR,06:00,22:00,GOODS-SHED,1.6,1.0,,N,IR,,,N,27.105306,84.462336
NPV,NARPATGANJ,SPJ,EC,ARARIA,BIHAR,,,GOODS-SHED,6.0,,,,,,,,26.201269,86.04269
PPA,PIPRA,SPJ,EC,PURBI CHAMPARAN,BIHAR,,,GOODS-SHED,5.8,,,,,,,,26.49012667,84.98615
PPV,PRATAPGANJ,SPJ,EC,SUPAUL,BIHAR,,,GOODS-SHED,6.3,,,,,,,,26.31342,86.955585
PRNC,PURNIA COURT,SPJ,EC,PURNIA,BIHAR,06:00,23:59,CRT,6.8,1.0,MANUAL,N,IR,,,N,25.79544667,87.47499
RGH,RAMGARHWA,SPJ,EC,PURBI CHAMPARAN,BIHAR,06:00,22:00,GOODS-SHED,9.5,1.0,MANUAL,N,IR,,,N,26.8769,84.7987
RIGA,RIGA,SPJ,EC,SITAMARHI,BIHAR,,,GOODS-SHED,1.1,1.0,MANUAL,N,IR,,,N,26.64291667,85.4285
RXL,RAXAUL JN.,SPJ,EC,PURBI CHAMPARAN,BIHAR,,,CRT,4.9,3.0,MANUAL,N,IR,,,N,26.9871,84.8455
SBM,SONBARSA KACHERI,SPJ,EC,SAHARSA,BIHAR,,,CRT,3.4,1.0,MANUAL,,IR,,,N,25.7936,86.5961
SHC,SAHARSA JN.,SPJ,EC,SAHARSA,BIHAR,,,GOODS-SHED,2.8,1.0,,Y,IR,,,N,25.874744,86.594386
SKI,SAKRI JN.,SPJ,EC,DARBHANGA,BIHAR,,,GOODS-SHED,2.9,1.0,MANUAL,N,IR,,,N,26.2089,86.0778
SLNA,SALAUNA,SPJ,EC,BEGUSARAI,BIHAR,,,GOODS-SHED,6.9,1.0,MANUAL,,IR,,,N,25.60336167,86.26016833
SMI,SITAMARHI,SPJ,EC,SITAMARHI,BIHAR,,,GOODS-SHED,4.4,1.0,MANUAL,N,IR,,,N,26.595153,85.504683
SRSI,SARSI,SPJ,EC,PURNIA,BIHAR,,,GOODS-SHED,3.9,1.0,MANUAL,N,IR,,,N,25.86372833,87.28474167
TMA,TAMURIA,SPJ,EC,MADHUBANI,BIHAR,06:00,22:00,GOODS-SHED,4.2,1.0,MANUAL,N,IR,,,N,26.245965,86.353011
TPSM,"THERMAL POWER STATION SDG, MUZAFFARPUR JN.",SPJ,EC,MUZAFFARPUR,BIHAR,06:00,22:00,PRVT-SDNG,7.5,4.0,MECHANICAL,N,KBUN,,,N,26.180012,85.309353
TRS,TARSARAI,SPJ,EC,DARBHANGA,BIHAR,06:00,22:00,GOODS-SHED,9.3,1.0,MANUAL,N,IR,,,N,26.1944,86.0144
ACTR,ANAANTA COLLIERY SDG,KUR,ECO,ANUGUL,ODISHA,00:00,23:59,PRVT-SDNG,7.2,2.0,MECHANICAL,Y,MCFL,HND,,N,20.932182,85.200305
ANGL,ANGUL,KUR,ECO,ANUGUL,ODISHA,06:00,22:00,GOODS-SHED,5.4,1.0,MANUAL,N,IR,,,N,20.86036,85.10182117
ASGN,AARTI STEELS LTD SDG,KUR,ECO,CUTTACK,ODISHA,00:00,23:59,PRVT-SDNG,4.0,3.0,MECHANICAL,Y,ARSP,,,N,20.510882,85.736146
BBMT,M/S BALARAM SIDING OF M/S MCL,KUR,ECO,ANUGUL,ODISHA,06:00,22:00,PRVT-SDNG,4.3,1.0,MECHANICAL,Y,MCFL,HND,,N,20.932182,85.200305
BCMT,BHARATPUR PRIVATE SDG OF MCL,KUR,ECO,ANUGUL,ODISHA,00:00,23:59,PRVT-SDNG,5.5,2.0,MECHANICAL,Y,MCFL,HND,,N,20.932182,85.200305
BHC,BHADRAK,KUR,ECO,BHADRAK,ODISHA,06:00,22:00,GOODS-SHED,1.6,1.0,MANUAL,Y,IR,,,Y,21.09133417,86.51627333
BSTC,BHARATPUR SILO SIDING OF MAHANDI COALFIELDS LIMITED,KUR,ECO,ANUGUL,ODISHA,08:00,18:00,PRVT-SDNG,8.9,,,,,,,,20.93033611,85.20146389
CBSP,"GCB SIDING PARADEEP PORT,  PARADEEP",KUR,ECO,JAGATSINGHAPUR,ODISHA,00:00,23:59,PRVT-SDNG,8.5,4.0,BOTH,N,GABP,,,N,20.280554,86.620331
CNCP,CONCOR'S PORT SIDE CONTAINER TERMINAL AT PARADEEP PORT,KUR,ECO,JAGATSINGHAPUR,ODISHA,08:00,18:00,PRVT-SDNG,5.4,1.0,MECHANICAL,N,CONR,,,N,20.280554,86.620331
CTC,CUTTACK JN.,KUR,ECO,CUTTACK,ODISHA,00:00,23:59,GOODS-SHED,3.3,2.0,MANUAL,N,IR,,,N,20.46402833,85.90064283
DATR,DAITARI,KUR,ECO,KENDUJHAR,ODISHA,06:00,22:00,GOODS-SHED,3.5,2.0,MANUAL,N,IR,,,N,21.11449167,85.90798611
DBCS,"DB COLLIERY SDG , TALCHER",KUR,ECO,ANUGUL,ODISHA,00:00,23:59,PRVT-SDNG,3.0,2.0,MECHANICAL,Y,MCFL,HND,,N,20.932182,85.200305
DDIP,DEEP DRAUGHT IRON ORE AND COAL BERTHS OF M/S PPT,KUR,ECO,JAGATSINGHAPUR,ODISHA,08:00,18:00,PRVT-SDNG,4.9,,,,,,,,20.2793875,86.6122425
DDSP,"DEEP DRAUGHT IRON ORE AND COAL BERTHS OF M/S PPT, PHASE-II",KUR,ECO,JAGATSINGHAPUR,ODISHA,08:00,18:00,PRVT-SDNG,5.1,,,,,,,,20.2793875,86.6122425
DNKL,DHENKANAL,KUR,ECO,DHENKANAL,ODISHA,08:00,18:00,GOODS-SHED,1.8,1.0,MANUAL,N,IR,HND,,N,20.67699717,85.59034383
DNM,DHANMANDAL,KUR,ECO,JAJAPUR,ODISHA,00:00,23:59,GOODS-SHED,2.5,2.0,MANUAL,N,IR,,,N,20.68700933,86.11238533
DPCB,M/S DHAMRA PORT COMPANY LIMITED SIDING,KUR,ECO,BHADRAK,ODISHA,06:00,22:00,PRVT-SDNG,8.0,5.0,BOTH,Y,ADIL,,,N,21.0912758,86.5157605
FCKR,"FCI SDG , KHURDA ROAD",KUR,ECO,KHORDHA,ODISHA,06:00,22:00,PRVT-SDNG,2.6,0.5,MANUAL,Y,FCI,,,N,20.153136,85.708294
FDBR,FERTILISER HANDLING SIDING OF M/S DPCL,KUR,ECO,BHADRAK,ODISHA,06:00,22:00,PRVT-SDNG,8.3,1.0,BOTH,Y,ADIL,,,N,21.068322,86.47562
GADH,GOALDIH,KUR,ECO,KENDUJHAR,ODISHA,06:00,22:00,GOODS-SHED,3.3,1.0,MECHANICAL,N,IR,KDJR,,N,21.72659,85.546714
GCCJ,GCT OF M/S CONCOR AT JJKR,KUR,ECO,JAJAPUR,ODISHA,00:00,23:59,PRVT-SDNG,6.8,,,,,,,,20.94341717,86.13294817
GCCP,GCT OF M/S. CONCOR,KUR,ECO,JAGATSINGHAPUR,ODISHA,08:00,18:00,PRVT-SDNG,3.5,,,,,,,,20.2793875,86.6122425
GPLC,PRIVATE SIDING OF M/S GOPALPUR PORTS LIMITED,KUR,ECO,GANJAM,ODISHA,06:00,22:00,PRVT-SDNG,2.3,,,,,,,,19.35943033,84.9736815
HLBK,"HPCL  LPG BOTTLING PLANT,KHURDA RD",KUR,ECO,KHORDHA,ODISHA,06:00,22:00,PRVT-SDNG,2.2,1.0,MECHANICAL,N,HPC,,,Y,20.153136,85.708294
HND,HINDOL ROAD,KUR,ECO,DHENKANAL,ODISHA,06:00,22:00,GOODS-SHED,7.1,1.0,MECHANICAL,N,IR,,,N,20.76854033,85.42422733
HPPK,"HPCL SDG, PARADEEP",KUR,ECO,JAGATSINGHAPUR,ODISHA,06:00,18:00,PRVT-SDNG,1.6,1.0,MECHANICAL,N,HPCH,,,Y,20.280554,86.620331
ICCC,M/S INDIAN METALS AND FERRO ALLOYS LIMITED,KUR,ECO,CUTTACK,ODISHA,00:00,23:59,PRVT-SDNG,5.8,1.0,MECHANICAL,N,IMFA,,,N,20.5692939,85.9112406
IOK,"IOC SDG, KHURDA ROAD",KUR,ECO,KHORDHA,ODISHA,06:00,18:00,PRVT-SDNG,1.8,1.0,MECHANICAL,N,IOC,,,Y,20.153136,85.708294
IOSP,"IOC SDG, PARADEEP",KUR,ECO,JAGATSINGHAPUR,ODISHA,06:00,18:00,PRVT-SDNG,1.4,2.0,MECHANICAL,N,IOC,,,Y,20.280554,86.620331
IPCP,M/s IOCL PET COKE SIDING,KUR,ECO,JAGATSINGHAPUR,ODISHA,08:00,18:00,PRVT-SDNG,9.1,2.0,MECHANICAL,N,IOC,,,N,20.280554,86.620331
IREL,PFT OF M/S IREL (INDIA) LIMITED,KUR,ECO,GANJAM,ODISHA,06:00,22:00,PRVT-SDNG,1.2,2.0,MANUAL,N,IREL,,,N,19.3593372,84.973653
JJKR,JAJPUR KEONJHAR ROAD,KUR,ECO,JAJAPUR,ODISHA,00:00,23:59,GOODS-SHED,7.7,1.0,MANUAL,Y,IR,,,N,20.94341717,86.13294817
JNP,JAGAN NATHAPUR,KUR,ECO,GANJAM,ODISHA,00:00,23:59,CRT,7.5,2.0,MANUAL,N,IR,,,N,19.3301745,84.867884
JSLS,PFT OF M/S JINDAL STAINLESS LIMITED,KUR,ECO,JAJAPUR,ODISHA,00:00,23:59,PRVT-SDNG,3.0,5.0,MECHANICAL,Y,JISL,,,Y,20.971538,86.05402
JSPK,PRIVATE SIDING OF M/S JINDAL STEEL AND POWER LIMITED,KUR,ECO,ANUGUL,ODISHA,,,PRVT-SDNG,9.0,9.0,MECHANICAL,Y,JSPK,JSPK,,Y,20.855523,84.976416
KIS,KAPILAS ROAD JN.,KUR,ECO,CUTTACK,ODISHA,00:00,23:59,CRT,3.3,1.0,MECHANICAL,N,IR,,,N,20.557429,85.99284983
KPJG,KEREJANGA,KUR,ECO,ANUGUL,ODISHA,06:00,22:00,GOODS-SHED,3.7,5.0,MANUAL,N,IR,"KDLR, KPJG, MNDH",,N,20.85517033,84.9765225
KPXR,KAIPADAR ROAD,KUR,ECO,KHORDHA,ODISHA,06:00,22:00,CRT,7.5,1.0,MECHANICAL,N,IR,,,N,20.1043905,85.6395915
KUR,KHURDA ROAD JN.,KUR,ECO,KHORDHA,ODISHA,06:00,22:00,GOODS-SHED,6.0,0.5,MANUAL,N,IR,,,Y,20.153527,85.70897917
KURT,KHURDA TOWN,KUR,ECO,KHORDHA,ODISHA,,,GOODS-SHED,3.1,,,,,,,,20.15836567,85.593389
LMGT,LINGARAJ MGR OF M/S MCL AT TALCHER,KUR,ECO,ANUGUL,ODISHA,06:00,22:00,PRVT-SDNG,4.6,2.0,MECHANICAL,Y,MCFL,,,N,20.932182,85.200305
LRST,LINGARAJ SPUR SIDING NO.3 OF MCL,KUR,ECO,ANUGUL,ODISHA,08:00,18:00,PRVT-SDNG,7.4,1.0,MECHANICAL,N,NTPC,,,N,20.93033611,85.20146389
LSST,LINGARAJ SILO SIDING OF M/S MCL,KUR,ECO,ANUGUL,ODISHA,08:00,18:00,PRVT-SDNG,6.8,2.0,MECHANICAL,Y,MCFL,HND,,N,20.93033611,85.20146389
MBMB,PRIVATE SIDING OF M/s TATA STEEL LIMITED,KUR,ECO,DHENKANAL,ODISHA,06:00,22:00,PRVT-SDNG,7.4,5.0,MECHANICAL,Y,TSBL,,,Y,20.802377,85.304933
MCS,MANCHESWAR,KUR,ECO,KHORDHA,ODISHA,06:00,22:00,GOODS-SHED,9.7,2.0,MANUAL,N,IR,,,N,20.322323,85.84558717
MFPB,PRIVATE SIDING OF M/S FERRO ALLOYS CORPORATION LTD,KUR,ECO,BHADRAK,ODISHA,,,PRVT-SDNG,8.2,1.0,MECHANICAL,N,FACR,,,N,21.068322,86.47562
MGBK,PRIVATE SIDING OF M/S GMR KAMALANGA ENERGY LTD,KUR,ECO,DHENKANAL,ODISHA,,,PRVT-SDNG,4.1,2.0,MECHANICAL,Y,GMRK,,,N,20.85295668,85.25562286
MGCT,PRIVATE SIDING OF M/S GLOBAL COAL AND MINING PVT. LTD.,KUR,ECO,ANUGUL,ODISHA,,,PRVT-SDNG,4.6,1.0,MECHANICAL,Y,GCML,HND,,N,20.932182,85.200305
MMIS,M/S MID EAST INTEGRATED STEELS LTD,KUR,ECO,JAJAPUR,ODISHA,,,PRVT-SDNG,4.8,2.0,MECHANICAL,Y,MISL,,,N,20.971538,86.05402
MOIB,PRIVATE SIDING OF M/S DALMIA CEMENT(BHARAT),KUR,ECO,CUTTACK,ODISHA,00:00,23:59,PRVT-SDNG,2.6,1.0,BOTH,Y,ACC,,,N,20.628447,86.035137
NANR,NARANPUR,KUR,ECO,KENDUJHAR,ODISHA,00:00,23:59,GOODS-SHED,3.7,1.0,MECHANICAL,N,IR,,,N,21.61713983,85.63728033
NEYT,"PVT SDG OF M/S NTPC SUPER THERMAL POWER STN,TALCHER,KANIHA",KUR,ECO,ANUGUL,ODISHA,00:00,23:59,PRVT-SDNG,8.8,1.0,MECHANICAL,Y,NTPC,HND,,Y,20.91053333,85.2143
NINS,M/S NEELACHAL ISPAT NIGAM LTD,KUR,ECO,JAJAPUR,ODISHA,00:00,23:59,PRVT-SDNG,9.6,5.0,MECHANICAL,N,NINL,,,Y,20.971538,86.05402
NRG,NERGUNDI JN.,KUR,ECO,CUTTACK,ODISHA,00:00,23:59,GOODS-SHED,7.5,2.0,BOTH,N,IR,,,Y,20.537985,85.95830367
NYG,NAYAGARH,KUR,ECO,KENDUJHAR,ODISHA,00:00,23:59,GOODS-SHED,1.3,3.0,MECHANICAL,N,IR,KDJR,,N,21.83993167,85.43411389
PEQP,PARADIP EAST QUAY COAL TERMINAL PVT LTD OF M/S PPT,KUR,ECO,JAGATSINGHAPUR,ODISHA,08:00,18:00,PRVT-SDNG,2.5,,,,,,,,20.2793875,86.6122425
PICP,PFT OF M/S PARADIP INTERNATIONAL CARGO TERMINAL PVT. LTD.,KUR,ECO,JAGATSINGHAPUR,ODISHA,06:00,22:00,PRVT-SDNG,7.2,2.0,BOTH,N,GIMP,,,N,20.280554,86.620331
PMIP,"M/S INDIAN FARMERS FERTILIZER CO-OPERATIVE LTD., PARADEEP",KUR,ECO,JAGATSINGHAPUR,ODISHA,,,PRVT-SDNG,3.8,1.0,MANUAL,N,IFFC,,,N,20.280554,86.620331
PPAP,"ADB COAL HANDLING PLANT, PARADEEP PORT TRUST",KUR,ECO,JAGATSINGHAPUR,ODISHA,00:00,23:59,PRVT-SDNG,4.8,2.0,MECHANICAL,N,PDSI,PRDP,,N,20.280554,86.620331
PPGP,PARADEEP GYPSUM LDNG SDNG,KUR,ECO,JAGATSINGHAPUR,ODISHA,06:00,18:00,PRVT-SDNG,5.7,1.0,MANUAL,N,PRPH,PRDP,,N,20.280554,86.620331
PPSM,"PARADEEP PORT MANUAL IRON ORE UNLOADING SDG,PPT",KUR,ECO,JAGATSINGHAPUR,ODISHA,00:00,23:59,PRVT-SDNG,6.8,2.0,MECHANICAL,N,PPSL,,,N,20.280554,86.620331
PPTG,"PARADEEP PORT TIPPLER IRON ORE UNLOADING SDG,PPT",KUR,ECO,JAGATSINGHAPUR,ODISHA,00:00,23:59,PRVT-SDNG,5.9,2.0,MECHANICAL,N,PPTP,,,N,20.280554,86.620331
PPTP,PARADEEP PORT THROUGH DISTANCE SIDING,KUR,ECO,JAGATSINGHAPUR,ODISHA,08:00,18:00,PRVT-SDNG,6.6,2.0,MECHANICAL,N,PPTP,,,N,20.280554,86.620331
PRDP,PARADEEP,KUR,ECO,JAGATSINGHAPUR,ODISHA,08:00,18:00,GOODS-SHED,8.1,14.0,MANUAL,N,IR,,,Y,20.2793875,86.6122425
PRNR,PORJANPUR,KUR,ECO,KENDUJHAR,ODISHA,00:00,23:59,CRT,2.2,1.0,MECHANICAL,N,IR,KDJR,,N,21.785479,85.52383333
PRPL,"PARADEEP PHOSPHATES  LTD,  PARADEEP",KUR,ECO,JAGATSINGHAPUR,ODISHA,00:00,23:59,PRVT-SDNG,4.4,1.5,MANUAL,Y,PRPH,PRDP,,N,20.280554,86.620331
RCLH,PRIVATE SIDINGS OF RAMCO CEMENTS LIMITED,KUR,ECO,JAJAPUR,ODISHA,00:00,23:59,PRVT-SDNG,9.5,,,,,,,,20.7241995,86.1170535
RJGR,RAJATHGARH JN.,KUR,ECO,CUTTACK,ODISHA,06:00,22:00,GOODS-SHED,1.3,1.0,MANUAL,N,IR,,,N,20.57616233,85.74223867
SBCT,SOUTH BALANDA-JAGANNATH COLLIERY SDG,KUR,ECO,ANUGUL,ODISHA,00:00,23:59,PRVT-SDNG,4.9,4.0,MECHANICAL,Y,MCFL,HND,,N,20.932182,85.200305
SCPM,NALCO SMELTER/CAPITIVE POWER PLANT SIDING,KUR,ECO,ANUGUL,ODISHA,00:00,23:59,PRVT-SDNG,3.5,6.0,BOTH,Y,NALC,,,Y,20.85295668,85.25562286
SKND,SUKINDA ROAD,KUR,ECO,JAJAPUR,ODISHA,00:00,23:59,GOODS-SHED,3.9,8.0,MECHANICAL,N,IR,,,Y,20.97516617,86.05177
SLRD,SURLA ROAD,KUR,ECO,GANJAM,ODISHA,06:00,22:00,GOODS-SHED,7.4,0.5,MECHANICAL,N,IR,,,N,19.17652933,84.71879467
SSMT,SILO SPUR SIDING OF M/S ACB(INDIA) LIMITED,KUR,ECO,ANUGUL,ODISHA,08:00,18:00,PRVT-SDNG,5.1,2.0,MECHANICAL,N,MCFL,,,N,20.93033611,85.20146389
TLTM,TTPS SIDING TALCHER,KUR,ECO,ANUGUL,ODISHA,07:00,21:00,PRVT-SDNG,4.1,2.0,MECHANICAL,Y,NTPC,HND,,N,20.90441944,85.21670278
TMKA,TOMKA,KUR,ECO,JAJAPUR,ODISHA,06:00,22:00,GOODS-SHED,5.4,1.0,MECHANICAL,N,IR,,,N,21.1076415,85.975959
TSLJ,M/S PRIVATE SIDING OF M/S TATA STEEL LIMITED,KUR,ECO,JAJAPUR,ODISHA,00:00,23:59,PRVT-SDNG,8.8,10.0,MECHANICAL,Y,TISC,,,Y,20.917831,86.06535
UCSM,GCT OF M/S ULTRATECH CEMENT LIMITED,KUR,ECO,CUTTACK,ODISHA,06:00,22:00,PRVT-SDNG,2.8,,,,,,,,20.5692245,85.76925417
BLGR,BALANGIR,SBP,ECO,BALANGIR,ODISHA,06:00,22:00,CRT,5.0,4.0,MANUAL,N,IR,"KDLR, KPJG, LPG, MNDH",,N,20.68823583,83.4941535
BLSN,BELSONDA,SBP,ECO,MAHASAMUND,CHHATTISGARH,06:00,22:00,CRT,3.6,5.0,MANUAL,N,IR,"KDLR, KPJG, LPG, MNDH",,N,21.15465417,82.03534417
BPSL,M/S BHUSHAN POWER AND STEEL LTD,SBP,ECO,SAMBALPUR,ODISHA,00:00,23:59,PRVT-SDNG,6.0,13.0,MECHANICAL,Y,BPSL,BPSL,,N,21.732474,84.03966
BRGA,BARGARH ROAD,SBP,ECO,BARGARH,ODISHA,06:00,22:00,GOODS-SHED,3.3,4.0,MANUAL,N,IR,"KDLR, KPJG, LPG, MNDH",,N,21.33319183,83.64335717
CFDS,THE ASSOCIATED CEMENT CO. LTD.UNIT BARGARH CEMENT WORKS,SBP,ECO,BARGARH,ODISHA,00:00,23:59,PRVT-SDNG,4.0,4.0,MANUAL,Y,ACC,CFDS,,N,21.333353,83.643036
DJX,DUNGRIPALI,SBP,ECO,SONEPUR,ODISHA,00:00,23:59,GOODS-SHED,8.4,5.0,MANUAL,N,IR,"KDLR, KPJG, LPG, MNDH",,N,21.06085278,83.55921667
DKLU,DOIKALU,SBP,ECO,RAYAGADA,ODISHA,00:00,23:59,CRT,7.0,4.0,MANUAL,N,IR,"KDLR, MKO, PRDP, SCMN",,N,19.74138611,83.48493889
HIWS,"HIRAKUND INDUSTRIAL WKS LTD. OF M/S IDC,  SAMBALPUR",SBP,ECO,SAMBALPUR,ODISHA,00:00,23:59,PRVT-SDNG,8.6,2.0,MANUAL,Y,HILL,HIWS,,Y,21.482862,83.961639
HKG,HIRAKUD,SBP,ECO,SAMBALPUR,ODISHA,06:00,22:00,CRT,8.4,4.0,MANUAL,N,IR,"HND, KDLR, KPJG, LPG, MNDH",,N,21.4803865,83.90560283
HNPA,HANDAPA,SBP,ECO,ANUGUL,ODISHA,06:00,22:00,CRT,2.3,5.0,MANUAL,N,AAA,"KPJG, LPG, MNDH, SCMN, TKRI",,N,20.94245267,84.68613283
IMFT,"INDIAN METAL AND FERRO ALLOYS LTD,  THERUVALI",SBP,ECO,RAYAGADA,ODISHA,06:00,22:00,PRVT-SDNG,7.3,2.0,MANUAL,N,IMFA,IMFT,,N,19.335766,83.421249
JNRD,JUNAGARH ROAD,SBP,ECO,KALAHANDI,ODISHA,,,GOODS-SHED,5.5,4.0,MANUAL,N,IR,,,N,19.87394283,82.94668067
JRPD,JARAPADA,SBP,ECO,ANUGUL,ODISHA,06:00,22:00,GOODS-SHED,1.2,,,,,,,,20.8848785,84.8880935
KBJ,KANTABANJI,SBP,ECO,BALANGIR,ODISHA,06:00,22:00,CRT,1.7,4.0,MANUAL,N,IR,"KDLR, KPJG, LPG, MNDH",,N,20.474145,82.9072545
KMK,KOMAKHAN,SBP,ECO,MAHASAMUND,CHHATTISGARH,,,GOODS-SHED,8.6,5.0,MANUAL,N,IR,"KDLR, KPJG, LPG, MNDH",,N,20.98043333,82.45752233
KRAR,KHARIAR ROAD,SBP,ECO,NUAPADA,ODISHA,06:00,22:00,CRT,5.0,4.0,MANUAL,N,IR,"KDLR, KPJG, LPG, MNDH",,N,20.90152483,82.511055
KSNG,KESINGA,SBP,ECO,KALAHANDI,ODISHA,00:00,23:59,GOODS-SHED,1.9,5.0,MANUAL,Y,IR,"KDLR, KPJG, LPG, MNDH",,N,20.189098,83.22450767
LPG,LAPANGA,SBP,ECO,SAMBALPUR,ODISHA,,,CRT,7.4,8.0,MANUAL,N,IR,LPG,,N,21.73301183,84.03954917
MAAL,PRIVATE SIDING OF M/S HINDALCO INDU. LTD.(ADITYA ALUMINIUM),SBP,ECO,SAMBALPUR,ODISHA,,,PRVT-SDNG,6.1,19.0,MECHANICAL,Y,HILD,MAAL,,Y,21.732474,84.03966
MAIL,ARYAN ISPAT AND POWER PVT. LTD,SBP,ECO,SAMBALPUR,ODISHA,,,PRVT-SDNG,4.2,3.0,BOTH,N,ARYN,MAIL,,N,21.732474,84.03966
MANE,MANESWAR,SBP,ECO,SAMBALPUR,ODISHA,,,GOODS-SHED,5.1,3.0,MANUAL,N,IR,,,N,21.411006,84.04376383
MAVB,PRIVATE SIDING OF M/S VEDANTA LIMITED,SBP,ECO,JHARSUGUDA,ODISHA,,,PRVT-SDNG,5.8,13.0,MECHANICAL,Y,VAL,MAVB,,Y,21.806643,84.016356
MVAA,PRIVATE SIDING OF M/S VEDANTA LIMITED,SBP,ECO,KALAHANDI,ODISHA,06:00,22:00,PRVT-SDNG,4.5,13.0,BOTH,N,VALL,MVAA,,Y,19.836476,83.456182
OFB,ORDNANCE FACTORY,SBP,ECO,BALANGIR,ODISHA,00:00,23:59,PRVT-SDNG,3.8,1.0,MANUAL,Y,MILY,"KDLR, KPJG, LPG, MNDH",,N,20.38484,83.271089
RGL,RENGALI,SBP,ECO,SAMBALPUR,ODISHA,06:00,22:00,CRT,2.6,5.0,MANUAL,N,IR,"KDLR, KPJG, LPG, MNDH",,N,21.63574783,84.04221983
SBPY,SAMBALPUR CITY,SBP,ECO,SAMBALPUR,ODISHA,06:00,22:00,CRT,3.2,5.0,MANUAL,Y,IR,"KDLR, KPJG, LPG, MNDH",,N,21.47684367,84.00747533
SEBD,PRIVATE SIDING OF M/S VEDANTA LIMITED,SBP,ECO,JHARSUGUDA,ODISHA,06:00,18:00,PRVT-SDNG,2.2,13.0,MECHANICAL,Y,STEL,SEBD,,N,21.806643,84.016356
SMER,PRIVATE SIDING OF M/S SHYAM METALICS AND ENERGY LIMITED,SBP,ECO,SAMBALPUR,ODISHA,06:00,22:00,PRVT-SDNG,4.4,2.0,BOTH,N,SMEL,SMER,,N,21.637045,84.042449
SNPU,SONEPUR,SBP,ECO,BALANGIR,ODISHA,06:00,22:00,GOODS-SHED,6.4,,,,,,,,20.688761,83.494377
SSN,SASON,SBP,ECO,SAMBALPUR,ODISHA,06:00,22:00,GOODS-SHED,2.4,4.0,MANUAL,N,IR,,,N,21.55962233,84.0391085
APWP,M/S ANDHRA PARADESH STATE WAREHOUSING INVESTORS GODOWN,WAT,ECO,VISAKHAPATANAM,ANDHRA PRADESH,00:00,23:59,PRVT-SDNG,6.0,1.0,MANUAL,Y,APSW,,,N,17.813458,83.195171
BCHL,BACHELI,WAT,ECO,DANTEWADA,CHHATTISGARH,06:00,22:00,GOODS-SHED,6.2,,,,,,,,18.70376283,81.23829317
BDXX,BADEARAPUR,WAT,ECO,BASTAR,CHHATTISGARH,06:00,22:00,GOODS-SHED,2.4,1.0,MECHANICAL,N,IR,,,N,19.01252778,81.82962222
CCJS,PFT OF CONCOR,WAT,ECO,VISAKHAPATANAM,ANDHRA PRADESH,,,PRVT-SDNG,2.1,7.0,MECHANICAL,Y,CONR,,,N,17.6998,83.2961
CFVS,"COROMANDAL FERTILISER SDG, VISHAKHAPATNAM PORT",WAT,ECO,VISAKHAPATANAM,ANDHRA PRADESH,06:00,22:00,PRVT-SDNG,4.5,4.0,MANUAL,Y,CFL,,,N,17.6998,83.2961
CHE,SRIKAKULAM ROAD,WAT,ECO,SRIKAKULAM,ANDHRA PRADESH,06:00,22:00,GOODS-SHED,2.0,1.0,MANUAL,N,IR,,,N,18.40883,83.90344333
CPP,CHIPURUPALLE,WAT,ECO,VIZIANAGARAM,ANDHRA PRADESH,06:00,22:00,CRT,3.2,,,,,,,,18.31641317,83.569163
CRPD,CENTRAL DESPATCH YARD AND ORE TIPPLER NO.4 AND 5,WAT,ECO,VISAKHAPATANAM,ANDHRA PRADESH,06:00,22:00,PRVT-SDNG,2.3,,,,,,,,17.81420133,83.1955015
DMRT,DUMURIPUT,WAT,ECO,KORAPUT,ODISHA,06:00,22:00,GOODS-SHED,6.8,,,,,,,,18.78026267,82.803976
FCIG,"FCI NEW SDG,  VISHAKHAPATNAM PORT",WAT,ECO,VISAKHAPATANAM,ANDHRA PRADESH,06:00,22:00,PRVT-SDNG,7.2,1.0,MANUAL,Y,FCI,,,N,17.6998,83.2961
FMP,FERRO MANGANESE SDG,WAT,ECO,VIZIANAGARAM,ANDHRA PRADESH,06:00,22:00,PRVT-SDNG,5.7,1.0,MANUAL,Y,FACR,,,N,18.273776,83.531413
GRBL,GARUDABILI,WAT,ECO,VIZIANAGARAM,ANDHRA PRADESH,06:00,18:00,GOODS-SHED,4.8,1.0,MANUAL,N,IR,,,N,18.20176967,83.35500017
HPCV,PVT. SIDING FOR M/S HINDUSTAN PETROLEUM CORPN LTD. VZP,WAT,ECO,VISAKHAPATANAM,ANDHRA PRADESH,06:00,18:00,PRVT-SDNG,4.4,3.0,MECHANICAL,Y,HPC,,,Y,17.6998,83.2961
JDB,JAGDALPUR,WAT,ECO,BASTAR,CHHATTISGARH,00:00,23:59,GOODS-SHED,7.4,2.0,MANUAL,N,IR,,,N,19.06628467,82.01391567
JYP,JEYPORE,WAT,ECO,KORAPUT,ODISHA,06:00,22:00,GOODS-SHED,7.2,1.0,MANUAL,N,IR,,,N,18.8965105,82.55368317
KKGM,KAKRI GUMA,WAT,ECO,KORAPUT,ODISHA,06:00,22:00,GOODS-SHED,1.1,1.0,MANUAL,N,IR,TKRI,,N,18.9226545,83.00661033
KMEZ,KUMHAR MARENGA,WAT,ECO,BASTAR,CHHATTISGARH,06:00,22:00,GOODS-SHED,3.7,,MANUAL,N,IR,,,N,19.03483683,81.94684967
KPL,KANTAKAPALLI,WAT,ECO,VIZIANAGARAM,ANDHRA PRADESH,00:00,23:59,GOODS-SHED,3.3,1.0,MANUAL,N,IR,,,N,17.95466033,83.208112
KRDL,KIRANDUL,WAT,ECO,DANTEWADA,CHHATTISGARH,06:00,22:00,GOODS-SHED,9.6,1.0,MANUAL,N,IR,,,N,18.63883333,81.25914167
KRPU,KORAPUT JN.,WAT,ECO,KORAPUT,ODISHA,06:00,22:00,GOODS-SHED,2.6,1.0,MANUAL,N,IR,,,N,18.79214717,82.7191235
MCHV,MECHANIZED CARGO HDLG TRML OF VISAKHAPATNAM PORT AUTHORITY,WAT,ECO,VISAKHAPATANAM,ANDHRA PRADESH,00:00,23:59,PRVT-SDNG,1.4,,,,,,,,17.6998,83.2961
MGPV,M/S ADANI GANGAVARAM PORT PVT LTD,WAT,ECO,VISAKHAPATANAM,ANDHRA PRADESH,06:00,22:00,PRVT-SDNG,8.9,17.0,BOTH,Y,GL,,,N,17.703353,83.151569
MUAT,PRIVATE SIDING OF M/S UTKAL ALUMINA INTERNATIONAL LIMITED,WAT,ECO,RAYAGADA,ODISHA,,,PRVT-SDNG,1.4,14.0,BOTH,Y,UAIL,,,Y,19.177517,83.098955
NALW,"M/S NALCO  SDG, VPT",WAT,ECO,VISAKHAPATANAM,ANDHRA PRADESH,00:00,23:59,PRVT-SDNG,5.6,4.0,MECHANICAL,Y,NALC,,,Y,17.6998,83.2961
NLOD,NALCO SDG AT DAMANJODI,WAT,ECO,KORAPUT,ODISHA,00:00,23:59,PRVT-SDNG,4.5,17.0,MECHANICAL,Y,NALC,,,Y,18.768271,82.866268
NMAG,PRIVATE SIDING OF M/S NMDC STEEL LTD AMAGURA,WAT,ECO,BASTAR,CHHATTISGARH,00:00,23:59,PRVT-SDNG,6.6,4.0,MANUAL,Y,NMDC,,,Y,19.068283,82.147522
NMDB,NMDC IRON ORE LOADING DEPOSITE  NO. 5  SIDING - BACHELI,WAT,ECO,DANTEWADA,CHHATTISGARH,00:00,23:59,PRVT-SDNG,9.0,9.0,MECHANICAL,Y,NMDC,,,N,18.703631,81.238704
NMVK,"NMDC MALLINGER VALLEY SDG, KIRANDUL",WAT,ECO,DANTEWADA,CHHATTISGARH,00:00,23:59,PRVT-SDNG,8.0,2.0,MECHANICAL,Y,NMDC,SCMN,,N,18.757056,81.257701
PDT,PENDURTHI,WAT,ECO,VISAKHAPATANAM,ANDHRA PRADESH,06:00,18:00,GOODS-SHED,2.4,1.0,MECHANICAL,N,IR,,,N,17.81420133,83.1955015
PGFV,"M/S GODAVARI FERTILISER CHEMICAL LTD SDG, VISAKHAPATNAM",WAT,ECO,VISAKHAPATANAM,ANDHRA PRADESH,06:00,22:00,PRVT-SDNG,7.8,2.0,BOTH,Y,IR,VZP,,Y,17.6998,83.2961
PGSA,M/S STEEL EXCHANGE INDIA LTD.,WAT,ECO,VIZIANAGARAM,ANDHRA PRADESH,06:00,22:00,PRVT-SDNG,1.2,2.0,MANUAL,Y,IR,SCMN,,N,17.971671,83.172598
PSPG,M/S. J K PAPER LIMITED,WAT,ECO,RAYAGADA,ODISHA,06:00,22:00,PRVT-SDNG,3.5,3.0,BOTH,Y,JKCL,,,N,19.258403,83.402796
RGDA,RAYAGADA JN.,WAT,ECO,RAYAGADA,ODISHA,06:00,22:00,GOODS-SHED,5.0,1.0,MANUAL,N,IR,,,N,19.17520833,83.41055
STDV,M/S NTPC  SIMHADRI THERMAL POWER STATION,WAT,ECO,VISAKHAPATANAM,ANDHRA PRADESH,00:00,23:59,PRVT-SDNG,4.8,7.0,MECHANICAL,Y,NTPC,,,Y,17.703353,83.151569
VBL,BOBBILI JN.,WAT,ECO,VIZIANAGARAM,ANDHRA PRADESH,06:00,22:00,CRT,2.8,1.0,MANUAL,N,IR,,,N,18.5761845,83.34608
VGSD,VIZAG GENERAL CARGO BERTH PVT. LTD SIDING,WAT,ECO,VISAKHAPATANAM,ANDHRA PRADESH,00:00,23:59,PRVT-SDNG,6.9,3.0,MECHANICAL,Y,VGCB,SCMN,,N,17.703353,83.151569
VNCW,VISHAKHAPATNAM NEW GDS COMPLEX,WAT,ECO,VISAKHAPATANAM,ANDHRA PRADESH,00:00,23:59,GOODS-SHED,8.9,4.0,MANUAL,Y,IR,SCMN,,N,17.734135,83.25079
VPMS,VISAKHAPATNAM PORT MANUAL IRON ORE UNLOADING SIDING,WAT,ECO,VISAKHAPATANAM,ANDHRA PRADESH,00:00,23:59,PRVT-SDNG,1.1,1.0,MANUAL,Y,IR,,,N,17.6998,83.2961
VPTG,VISAKHAPATNAM PORT TRIPPLER IRON ORE UNLOADING SIDING,WAT,ECO,VISAKHAPATANAM,ANDHRA PRADESH,00:00,23:59,PRVT-SDNG,7.7,1.0,MECHANICAL,Y,IR,,,N,17.6998,83.2961
VSPS,VISAKHAPATNAM STEEL PLANT SIDING,WAT,ECO,VISAKHAPATANAM,ANDHRA PRADESH,06:00,22:00,PRVT-SDNG,5.1,40.0,MECHANICAL,Y,RINL,,,N,17.6998,83.2961
VSPV,M/S VIZAG SEAPORT PRIVATE LTD.VISAKHAPATNAM,WAT,ECO,VISAKHAPATANAM,ANDHRA PRADESH,00:00,23:59,PRVT-SDNG,2.2,2.0,MECHANICAL,Y,VSPS,,,N,17.6998,83.2961
VZM,VIZIANAGARAM JN.,WAT,ECO,VIZIANAGARAM,ANDHRA PRADESH,06:00,22:00,GOODS-SHED,7.1,1.0,MANUAL,N,IR,,,N,18.11154733,83.39525383
VZP,VISHAKHAPATNAM-PORT,WAT,ECO,VISAKHAPATANAM,ANDHRA PRADESH,00:00,23:59,PRVT-SDNG,2.6,20.0,BOTH,Y,IR,SCMN,,N,17.6998,83.2961
VZPB,"M/S INDIAN OIL CORPORATION(P) SDG, VISHAKHAPATNAM PORT TRUST",WAT,ECO,VISAKHAPATANAM,ANDHRA PRADESH,06:00,18:00,PRVT-SDNG,3.5,2.0,MECHANICAL,Y,IOC,AAFN,,Y,17.6998,83.2961
VZPS,"STEEL AUTHORITY OF INDIA LTD  SDG, VISHAKHAPATNAM PORT TRUST",WAT,ECO,VISAKHAPATANAM,ANDHRA PRADESH,00:00,23:59,PRVT-SDNG,7.7,1.0,MECHANICAL,Y,SAIL,,,N,17.6998,83.2961
ASN,ASANSOL JN.,ASN,ER,PASCHIM BARDHAMAN,WEST BENGAL,00:00,23:59,GOODS-SHED,1.3,2.0,MANUAL,N,IR,,,N,23.691165,86.97592167
BCDL,BANKOLA NO.1 SIDING,ASN,ER,PASCHIM BARDHAMAN,WEST BENGAL,00:00,23:59,PRVT-SDNG,7.4,2.0,MECHANICAL,N,ECF,,,N,23.653802,87.232647
BCME,"BURNCO SIDING,  BARACHAK",ASN,ER,PASCHIM BARDHAMAN,WEST BENGAL,00:00,23:59,PRVT-SDNG,1.8,8.0,MECHANICAL,N,SAIL,,,Y,23.723754,86.896362
BCQ,BARACHAK JN.,ASN,ER,PASCHIM BARDHAMAN,WEST BENGAL,00:00,23:59,CRT,9.0,1.0,MANUAL,N,IR,,,N,23.70707611,86.92864722
BCTL,BHANORA LOOP RLY SIDING,ASN,ER,PASCHIM BARDHAMAN,WEST BENGAL,,,RLY-SDNG,5.9,1.0,MECHANICAL,N,IR,,,N,23.579052,87.181234
BJSP,BONJEMEHARY COLLY SIDING,ASN,ER,PASCHIM BARDHAMAN,WEST BENGAL,00:00,23:59,PRVT-SDNG,3.7,1.0,MECHANICAL,N,ECF,,,N,23.759895,86.875935
BQTG,BAKHTARNAGAR LINK GOODS LINE,ASN,ER,PASCHIM BARDHAMAN,WEST BENGAL,06:00,22:00,RLY-SDNG,8.7,,,,,,,,23.58939333,87.15705
BTPC,"Bakreshwar Thermal Power Project,Chinpai",ASN,ER,BIRBHUM,WEST BENGAL,00:00,23:59,PRVT-SDNG,4.5,8.0,MECHANICAL,N,WBPD,,,Y,23.839997,87.460957
CAM,CHHOTA AMBANA,ASN,ER,DHANBAD,JHARKHAND,,,GOODS-SHED,9.1,1.0,MECHANICAL,N,IR,,,N,23.76206667,86.57245833
CCSJ,CHITRA COLLIERY SIDING JAMATARA,ASN,ER,JAMTARA,JHARKHAND,00:00,23:59,PRVT-SDNG,9.7,1.0,MECHANICAL,N,ECF,,,N,23.959274,86.805553
CLWS,"CHITTARAIJAN LOCOMOTIVE WORKS SDG, RUPNARAYANPUR",ASN,ER,PASCHIM BARDHAMAN,WEST BENGAL,06:00,22:00,RLY-SDNG,6.9,3.0,MECHANICAL,N,IR,,,N,23.819113,86.885891
CPCS,CENTRAL PIT COLLY SG.,ASN,ER,GIRIDIH,JHARKHAND,,,PRVT-SDNG,3.6,2.0,MECHANICAL,N,CCL,,,N,24.1818559,86.3142452
CTDI,BROWNFIELD PFT OF CONCOR TERMINAL DURGAPUR,ASN,ER,PASCHIM BARDHAMAN,WEST BENGAL,06:00,22:00,PRVT-SDNG,4.0,1.0,MANUAL,N,CONR,,,N,23.495366,87.298222
DBCP,DALURBRANCH COLLIERY SIDING PANDABESWAR,ASN,ER,PASCHIM BARDHAMAN,WEST BENGAL,00:00,23:59,PRVT-SDNG,8.5,1.0,MECHANICAL,N,ECF,,,N,23.712085,87.277536
DCOP,"DURGAPUR COKE OVEN PLANT EXCHANGE YARD SDG, WARIA",ASN,ER,PASCHIM BARDHAMAN,WEST BENGAL,00:00,23:59,PRVT-SDNG,4.7,12.0,MECHANICAL,N,WBPD,,,Y,23.50827,87.29253
DFCI,"FOOD CORPORATION SDG,  DURGAPUR",ASN,ER,PASCHIM BARDHAMAN,WEST BENGAL,00:00,23:59,PRVT-SDNG,5.3,3.0,MANUAL,Y,FCI,,,N,23.495366,87.298222
DGCW,"DURGAPUR CEMENT WORKS,  ANDAL JN.",ASN,ER,PASCHIM BARDHAMAN,WEST BENGAL,00:00,23:59,PRVT-SDNG,2.8,5.0,MECHANICAL,N,BRLC,,,N,23.579052,87.181234
DGR,DURGAPUR,ASN,ER,PASCHIM BARDHAMAN,WEST BENGAL,00:00,23:59,GOODS-SHED,4.7,2.0,MANUAL,N,IR,,,Y,23.49460333,87.31884333
DGTP,"DVC THERMAL POWER STN SDG,  WARIA",ASN,ER,PASCHIM BARDHAMAN,WEST BENGAL,00:00,23:59,PRVT-SDNG,4.1,6.0,MECHANICAL,N,DVC,,,Y,23.538022,87.246637
DMGS,DAMAGORIA SIDING,ASN,ER,PASCHIM BARDHAMAN,WEST BENGAL,00:00,23:59,PRVT-SDNG,3.4,2.0,MECHANICAL,N,BCCL,,,N,23.759895,86.875935
DSEY,"DURGAPORE STEEL EXCHANGE YARD SIDING, ANDAL JN.",ASN,ER,PASCHIM BARDHAMAN,WEST BENGAL,00:00,23:59,PRVT-SDNG,9.5,24.0,MECHANICAL,N,SAIL,DSEY,,N,23.579052,87.181234
DSTP,M/S DURGAPUR STEEL THERMAL POWER STATION,ASN,ER,PASCHIM BARDHAMAN,WEST BENGAL,,,PRVT-SDNG,5.6,5.0,MECHANICAL,N,DVC,,,Y,23.579052,87.181234
DUMK,DUMKA,ASN,ER,DUMKA,JHARKHAND,06:00,22:00,GOODS-SHED,3.4,1.0,MANUAL,N,IR,,,N,24.2896721,87.25553
HZH,HAZRATHPUR HALT,ASN,ER,BIRBHUM,WEST BENGAL,06:00,22:00,GOODS-SHED,8.1,2.0,MECHANICAL,N,IR,UDL,,N,23.770893,87.24123
ICML,INTEGRATED COAL MINES LTD. SDG.,ASN,ER,PASCHIM BARDHAMAN,WEST BENGAL,,,RLY-SDNG,8.8,1.0,MECHANICAL,N,IR,,,N,23.743555,87.019615
IOCR,"IOC SDG, RAJBANDH",ASN,ER,PASCHIM BARDHAMAN,WEST BENGAL,06:00,22:00,PRVT-SDNG,2.5,4.0,MECHANICAL,N,IOC,,,Y,23.475686,87.371864
JNCN,J.K. NAGAR COLLY SDG.,ASN,ER,PASCHIM BARDHAMAN,WEST BENGAL,00:00,23:59,PRVT-SDNG,2.7,1.0,MECHANICAL,N,ECF,,,N,23.626596,87.090168
JSME,JASIDIH JN.,ASN,ER,DEOGHAR,JHARKHAND,00:00,23:59,GOODS-SHED,8.4,1.0,MANUAL,N,IR,,,N,24.514685,86.64427
KNRI,KUNURI,ASN,ER,BIRBHUM,WEST BENGAL,06:00,22:00,GOODS-SHED,6.7,,,,,,,,23.91620306,87.61095306
MCSP,PURE-JAMBAD COLLIERY SIDING SONACHARA,ASN,ER,PASCHIM BARDHAMAN,WEST BENGAL,00:00,23:59,PRVT-SDNG,9.1,1.0,MECHANICAL,N,ECF,,,N,23.631314,87.148018
MDP,MADHUPUR JN.,ASN,ER,DEOGHAR,JHARKHAND,06:00,22:00,GOODS-SHED,7.4,2.0,MANUAL,N,IR,,,N,24.27086806,86.64248167
MFCP,MATIX FERTILISERS AND CHEMICALS LTD,ASN,ER,PURBA BARDHAMAN,WEST BENGAL,06:00,22:00,PRVT-SDNG,2.5,3.0,MECHANICAL,N,MFCL,AAFN,,,23.44349333,87.45773667
MHUR,MOHANPUR,ASN,ER,DEOGHAR,JHARKHAND,00:00,23:59,GOODS-SHED,1.2,,,,,,,,24.488711,86.785898
MLTC,M/S ULTRA TECH CEMENT SIDING/DURGAPUR,ASN,ER,PASCHIM BARDHAMAN,WEST BENGAL,00:00,23:59,PRVT-SDNG,9.0,6.0,MECHANICAL,N,UTCL,,,N,23.495366,87.298222
MMMT,MAITHON POWER LIMITED SDG,ASN,ER,DHANBAD,JHARKHAND,00:00,23:59,PRVT-SDNG,1.5,,,,,,,,23.769065,86.70162
MSSL,M/S SUPER SMELTERS LIMITED,ASN,ER,PASCHIM BARDHAMAN,WEST BENGAL,,,PRVT-SDNG,6.5,2.0,MECHANICAL,N,SUPR,,,N,23.666537,87.127075
MTPS,MEJIA THERMAL POWER STATION,ASN,ER,BANKURA,WEST BENGAL,00:00,23:59,PRVT-SDNG,3.7,5.0,MECHANICAL,N,DVC,,,Y,23.603161,87.11729
MUW,MATHURA PUR HALT,ASN,ER,DEOGHAR,JHARKHAND,06:00,22:00,GOODS-SHED,1.9,1.0,MANUAL,N,IR,,,N,24.3624,86.635095
MVCS,MUVA CONCRETE SLEEPER SDG,ASN,ER,DEOGHAR,JHARKHAND,,,RLY-SDNG,9.5,2.0,MECHANICAL,N,IR,,,N,24.273257,86.525402
NLCP,NEW LAKIDIH OPEN CAST PROJ SDNG,ASN,ER,DHANBAD,JHARKHAND,06:00,22:00,PRVT-SDNG,2.6,2.0,MECHANICAL,N,BCCL,,,N,23.747483,86.794095
NMCL,UP RNG-I (NIMCHA)COLLIERY SIDING NIMCHA BH,ASN,ER,PASCHIM BARDHAMAN,WEST BENGAL,00:00,23:59,PRVT-SDNG,10.0,1.0,MECHANICAL,N,ECF,,,N,23.626596,87.090168
OYR,WARIA,ASN,ER,PASCHIM BARDHAMAN,WEST BENGAL,00:00,23:59,GOODS-SHED,1.8,,,,IR,,,,23.53841,87.24652167
PAN,PANA GARH,ASN,ER,PASCHIM BARDHAMAN,WEST BENGAL,06:00,22:00,GOODS-SHED,4.0,1.0,MANUAL,N,IR,,,N,23.44349333,87.45773667
PAW,PANDABESWAR,ASN,ER,PASCHIM BARDHAMAN,WEST BENGAL,,,PRVT-SDNG,5.3,,,,,,,,23.71207861,87.27743528
PECP,M/S NU VISTA LIMITED,ASN,ER,PASCHIM BARDHAMAN,WEST BENGAL,,,PRVT-SDNG,2.8,5.0,MECHANICAL,,EMAC,,,N,23.442774,87.439327
PFPD,M/S PALOGIX INFRASTRUCTURE PVT. LTD. DGR,ASN,ER,PASCHIM BARDHAMAN,WEST BENGAL,00:00,23:59,PRVT-SDNG,7.8,2.0,MECHANICAL,N,WBPD,,,N,23.495366,87.298222
PMCS,PANDRA BR. SIDING,ASN,ER,DHANBAD,JHARKHAND,,,PRVT-SDNG,2.4,1.0,MECHANICAL,N,ECF,,,N,23.751804,86.748004
PMLR,M/S NUVOCO VISTAS COPRPORATION LIMITED,ASN,ER,BANKURA,WEST BENGAL,,,PRVT-SDNG,6.4,3.0,MECHANICAL,N,NVCL,,,N,23.603161,87.11729
POCP,PURUSHOTTAMPUR OCP,ASN,ER,PASCHIM BARDHAMAN,WEST BENGAL,06:00,22:00,PRVT-SDNG,8.8,2.0,MECHANICAL,N,ECF,,,N,23.712085,87.277536
PSBP,SONEPUR BAZARI SIDING OF ECL,ASN,ER,PASCHIM BARDHAMAN,WEST BENGAL,,,PRVT-SDNG,3.8,,,,,,,,23.71207861,87.27743528
PSCE,PARASCOLE EAST COLLY SIDING,ASN,ER,PASCHIM BARDHAMAN,WEST BENGAL,00:00,23:59,PRVT-SDNG,7.5,2.0,MECHANICAL,N,ECF,,,N,23.615587,87.184925
PSEC,PARASEA COLLY SDG.,ASN,ER,PASCHIM BARDHAMAN,WEST BENGAL,,,PRVT-SDNG,7.0,2.0,MECHANICAL,N,ECF,,,N,23.631314,87.148018
PWPS,PANDABESWAR PUBLIC  SIDING,ASN,ER,PASCHIM BARDHAMAN,WEST BENGAL,,,RLY-SDNG,7.3,,,,,,,,23.71207861,87.27743528
RNG,RANI GANJ,ASN,ER,PASCHIM BARDHAMAN,WEST BENGAL,00:00,23:59,CRT,5.5,2.0,MANUAL,N,IR,,,N,23.60363167,87.117495
SCOB,"SCOB SDG,  BARACHAK",ASN,ER,PASCHIM BARDHAMAN,WEST BENGAL,00:00,23:59,PRVT-SDNG,2.8,12.0,MECHANICAL,N,SAIL,,,N,23.723754,86.896362
SCU,PURE SITALPUR COLLY SIDING,ASN,ER,PASCHIM BARDHAMAN,WEST BENGAL,00:00,23:59,PRVT-SDNG,1.4,1.0,MECHANICAL,N,ECF,,,N,23.653802,87.232647
SRBK,SAIL RITES BENGAL WAGON INDUSTRY PVT LTD,ASN,ER,PASCHIM BARDHAMAN,WEST BENGAL,,,PRVT-SDNG,8.6,3.0,,N,SAIL,,,N,23.738016,86.84907
SRBS,"M/S JAI BALAJI INDUSTRIES, LTD.",ASN,ER,PASCHIM BARDHAMAN,WEST BENGAL,06:00,22:00,PRVT-SDNG,4.4,6.0,MECHANICAL,N,JBIL,,,Y,23.495366,87.298222
SSAP,SELECTED SAMLA ASSTD SIDING,ASN,ER,PASCHIM BARDHAMAN,WEST BENGAL,00:00,23:59,PRVT-SDNG,9.2,1.0,MECHANICAL,N,ECF,,,N,23.712085,87.277536
SSPL,M/S SHYAM SEL AND POWER LTD.,ASN,ER,PASCHIM BARDHAMAN,WEST BENGAL,,,PRVT-SDNG,2.9,3.0,MECHANICAL,N,SSP,,,N,23.666537,87.127075
SURI,SIURI,ASN,ER,BIRBHUM,WEST BENGAL,06:00,22:00,GOODS-SHED,2.1,1.0,MANUAL,N,IR,,,N,23.89036833,87.5308875
SWKT,BELBAID COLLIERY SIDING TAPASI,ASN,ER,PASCHIM BARDHAMAN,WEST BENGAL,00:00,23:59,PRVT-SDNG,8.7,2.0,MECHANICAL,N,ECF,,,N,23.666537,87.127075
TOP,TAPASI,ASN,ER,PASCHIM BARDHAMAN,WEST BENGAL,06:00,22:00,GOODS-SHED,1.2,2.0,MANUAL,N,IR,,,N,23.66536944,87.12831944
UDL,ANDAL JN.,ASN,ER,PASCHIM BARDHAMAN,WEST BENGAL,06:00,22:00,GOODS-SHED,6.1,1.0,MANUAL,N,IR,,,Y,23.579075,87.18158889
VDS,VIDYASAGAR,ASN,ER,JAMTARA,JHARKHAND,06:00,18:00,GOODS-SHED,3.9,1.0,MANUAL,N,IR,,,N,24.0829201,86.704252
BDC,BANDEL JN.,HWH,ER,HOOGHLY,WEST BENGAL,06:00,22:00,CRT,3.7,2.0,MANUAL,N,IR,,,N,22.92268056,88.37828056
BHAE,BHADRESHWAR GHAT,HWH,ER,HOOGHLY,WEST BENGAL,06:00,22:00,GOODS-SHED,1.0,1.0,MANUAL,N,IR,,,N,22.797231,88.332138
BLY,BALLY,HWH,ER,HOWRAH,WEST BENGAL,06:00,22:00,GOODS-SHED,2.6,1.0,MANUAL,N,IR,,,N,22.65572333,88.34062167
BTMT,"BANDEL THERMAL POWER STATIONS, TRIBENI",HWH,ER,HOOGHLY,WEST BENGAL,00:00,23:59,PRVT-SDNG,7.1,8.0,MECHANICAL,N,WBEB,,,Y,22.990318,88.398056
BWN,BARDDHAMAN JN. (BG),HWH,ER,PURBA BARDHAMAN,WEST BENGAL,00:00,23:59,GOODS-SHED,5.4,3.0,MANUAL,Y,IR,,,N,23.250185,87.869945
CTR,CHATRA,HWH,ER,BIRBHUM,WEST BENGAL,06:00,18:00,GOODS-SHED,8.4,1.0,MANUAL,N,IR,,,N,24.37258611,87.84899722
DFSD,"FOOD CORPN. OF INDIA,  DANKUNI",HWH,ER,HOOGHLY,WEST BENGAL,00:00,23:59,PRVT-SDNG,9.0,3.0,MANUAL,Y,FCI,,,N,22.677342,88.291411
DHAE,DAINHAT,HWH,ER,PURBA BARDHAMAN,WEST BENGAL,06:00,22:00,GOODS-SHED,4.8,,,,IR,,,,23.601205,88.17028667
DKAE,DANKUNI JN.,HWH,ER,HOOGHLY,WEST BENGAL,00:00,23:59,CRT,6.4,6.0,BOTH,Y,IR,DKAE,,Y,22.67820333,88.29098333
HGSM,"HINDUSTAN GRANITE STONE, HINDUSTAN INDUSTRY MINING PAKAUR",HWH,ER,PAKUR,JHARKHAND,00:00,23:59,RLY-SDNG,9.8,2.0,BOTH,N,HGSW,PKR,,N,24.637812,87.855864
HRNS,HARINSING,HWH,ER,DUMKA,JHARKHAND,06:00,22:00,GOODS-SHED,9.8,1.0,MANUAL,N,IR,PKR,,N,24.239129,87.574111
HWHG,HOWRAH GOODS,HWH,ER,HOWRAH,WEST BENGAL,06:00,22:00,GOODS-SHED,8.0,1.0,MANUAL,N,IR,HWHG,,Y,22.5958,88.2636
KLP,KOTALPUKUR,HWH,ER,PAKUR,JHARKHAND,06:00,22:00,GOODS-SHED,3.8,1.0,MANUAL,N,IR,PKR,,N,24.73994444,87.82430556
KSIK,"KALAPAHARI SDG, PAKAUR",HWH,ER,PAKUR,JHARKHAND,00:00,23:59,RLY-SDNG,6.4,1.0,BOTH,N,IR,,,N,24.637812,87.855864
LLH,LILUAH,HWH,ER,HOWRAH,WEST BENGAL,06:00,22:00,GOODS-SHED,7.4,0.0,MANUAL,N,IR,,,N,22.62148833,88.33931667
LPDC,"LTC PLANT DANKUNI COAL COMPLEX SDG, JANAI ROAD",HWH,ER,HOOGHLY,WEST BENGAL,00:00,23:59,PRVT-SDNG,6.3,2.0,BOTH,Y,ECF,,,N,22.722159,88.26489
MUCL,M/S ULTRATECH CEMENT LTD.(DANKUNI CEMENT WORKS),HWH,ER,HOOGHLY,WEST BENGAL,00:00,23:59,PRVT-SDNG,3.8,3.0,BOTH,Y,UCLH,DKAE,,N,22.722159,88.26489
MUG,MAGRA,HWH,ER,HOOGHLY,WEST BENGAL,06:00,22:00,CRT,4.5,2.0,MANUAL,N,IR,,,N,22.98358,88.36859667
PKR,PAKAUR,HWH,ER,PAKUR,JHARKHAND,06:00,22:00,GOODS-SHED,7.3,1.0,BOTH,N,IR,PKR,,Y,24.63719444,87.85605556
PKRW,PAKUR LOWER QUARRY LINE NO.1,HWH,ER,PAKUR,JHARKHAND,06:00,18:00,RLY-SDNG,7.3,1.0,BOTH,N,IR,PKR,,N,24.637812,87.855864
PKRX,PAKUR LOWER QUARRY LINE NO.2,HWH,ER,PAKUR,JHARKHAND,06:00,18:00,RLY-SDNG,7.1,1.0,BOTH,N,IR,PKR,,N,24.637812,87.855864
PKRY,PAKUR UPER QUARRY NEW LINE,HWH,ER,PAKUR,JHARKHAND,06:00,18:00,RLY-SDNG,9.3,1.0,BOTH,N,IR,PKR,,N,24.637812,87.855864
PKRZ,PAKUR UPER QUARRY OLD LINE,HWH,ER,PAKUR,JHARKHAND,06:00,18:00,RLY-SDNG,7.4,1.0,BOTH,N,IR,PKR,,N,24.637812,87.855864
PRGR,PINARGARIA,HWH,ER,DUMKA,JHARKHAND,,,GOODS-SHED,1.8,1.0,MANUAL,N,IR,PKR,,N,24.21101694,87.6428075
PSPC,PUNJAB STATE POWER CORPORATION LTD (PSPCL) SERVED BY PAKUR,HWH,ER,PAKUR,JHARKHAND,06:00,22:00,PRVT-SDNG,6.8,,,,,,,,24.63719444,87.85605556
RJPS,RAJGRAM PUBLIC SIDING,HWH,ER,BIRBHUM,WEST BENGAL,06:00,22:00,RLY-SDNG,6.9,1.0,MANUAL,N,RAIL,RJG,,N,24.544937,87.867966
RPH,RAMPUR HAT,HWH,ER,BIRBHUM,WEST BENGAL,06:00,22:00,GOODS-SHED,5.9,,,,IR,,,,24.17935333,87.78207333
RSCS,RAJGAON STONE CO. SIDING,HWH,ER,BIRBHUM,WEST BENGAL,06:00,18:00,PRVT-SDNG,4.3,2.0,MANUAL,N,RAJG,RJG,,N,24.544937,87.867966
SNT,SAINTHIA JN.,HWH,ER,BIRBHUM,WEST BENGAL,06:00,22:00,CRT,5.4,1.0,MANUAL,N,IR,,,N,23.94928,87.68110639
SRP,SHRIRAMPUR,HWH,ER,HOOGHLY,WEST BENGAL,06:00,22:00,CRT,3.8,3.0,MANUAL,N,IR,,,N,22.75487667,88.338375
SSYS,"M/S SAIL STOCK YARD SIDING, JANAI ROAD",HWH,ER,HOOGHLY,WEST BENGAL,06:00,22:00,PRVT-SDNG,7.7,2.0,MECHANICAL,Y,SAIL,,,N,22.722159,88.26489
TAK,TARAKESHWAR,HWH,ER,HOOGHLY,WEST BENGAL,06:00,22:00,CRT,5.3,1.0,MANUAL,N,IR,,,N,22.8821947,88.0142985
TIT,TALIT,HWH,ER,PURBA BARDHAMAN,WEST BENGAL,,,CRT,5.5,1.0,MANUAL,N,IR,,,N,23.29298917,87.81972583
TKSS,"TECHNOLAX KALIKA STONE SUPPLYANDKING CO.SDG, PAKAUR",HWH,ER,PAKUR,JHARKHAND,00:00,23:59,PRVT-SDNG,5.8,0.5,BOTH,N,TNLX,PKR,,N,24.637812,87.855864
TRTS,"TRIBENI TISSUE SDG FOR ITC LTD., TRIBENI",HWH,ER,HOOGHLY,WEST BENGAL,00:00,23:59,PRVT-SDNG,9.6,1.0,BOTH,N,TBCL,,,Y,22.990318,88.398056
WBPC,WEST BENGAL POWER DEVELOPMENT CORPORATION LTD SDG AT PAKUR,HWH,ER,PAKUR,JHARKHAND,06:00,22:00,PRVT-SDNG,7.0,3.0,MECHANICAL,N,WBPD,PKR,,N,24.63719444,87.85605556
APJG,GCT OF M/S ADANI POWER (JHARKHAND) LIMITED,MLDT,ER,GODDA,JHARKHAND,06:00,22:00,PRVT-SDNG,1.2,,,,,,,,24.6,87.0799
BAKA,BANKA,MLDT,ER,BANKA,BIHAR,06:00,22:00,GOODS-SHED,8.3,1.0,MANUAL,N,IR,,,N,24.86683833,86.91256667
BKGS,BAKUDI GENERAL SIDING,MLDT,ER,SAHEBGANJ,JHARKHAND,06:00,22:00,RLY-SDNG,8.1,,,,,,,,24.92624556,87.78059167
BKIR,BAKUDI IRCON SIDING,MLDT,ER,SAHEBGANJ,JHARKHAND,06:00,22:00,RLY-SDNG,9.3,,,,,,,,24.92624556,87.78059167
BKLE,BAKUDI,MLDT,ER,SAHEBGANJ,JHARKHAND,06:00,22:00,GOODS-SHED,2.6,1.0,BOTH,N,IR,BHW,,N,24.92624556,87.78059167
BKMT,BAKUDI MALITOK SIDING,MLDT,ER,SAHEBGANJ,JHARKHAND,06:00,22:00,RLY-SDNG,9.6,,,,,,,,24.92624556,87.78059167
BLPS,BARHARWA LOWER PUBLIC SIDING,MLDT,ER,SAHEBGANJ,JHARKHAND,06:00,22:00,RLY-SDNG,6.2,,,,,,,,24.85832833,87.77454333
BPSH,BARHARWA PUBLIC SIDING,MLDT,ER,SAHEBGANJ,JHARKHAND,06:00,22:00,RLY-SDNG,3.4,2.0,BOTH,N,PUB,BHW,,N,24.857858,87.774603
CLG,KAHALGAON,MLDT,ER,BHAGALPUR,BIHAR,00:00,23:59,GOODS-SHED,4.1,1.0,MANUAL,N,IR,,,N,25.26303,87.23448167
CMX,CHAMA GRAM,MLDT,ER,MALDAH,WEST BENGAL,06:00,22:00,GOODS-SHED,8.2,1.0,MECHANICAL,N,IR,,,N,24.82081,87.963175
DGLE,DHULIANGANGA,MLDT,ER,MURSHIDABAD,WEST BENGAL,06:00,18:00,GOODS-SHED,6.5,1.0,MANUAL,N,IR,,,N,24.67230667,87.93832833
DMSJ,"DAULATPUR SDG AND MINERAL SDG , JMP",MLDT,ER,MUNGER,BIHAR,,,RLY-SDNG,4.7,2.0,MANUAL,N,PUB,,,N,25.314236,86.492615
FSTP,FARAKKA SUPER NATIONAL THERMAL POWER PROJECT,MLDT,ER,MURSHIDABAD,WEST BENGAL,00:00,23:59,PRVT-SDNG,9.5,5.0,MECHANICAL,N,NTPC,,,Y,24.786579,87.873631
GZM,GOUR MALDA,MLDT,ER,MALDAH,WEST BENGAL,06:00,22:00,CRT,4.4,1.0,MANUAL,N,IR,MLDT,,N,24.94791833,88.11073333
JMSY,"JAMALPUR WORK SHOP, JAMALPUR",MLDT,ER,MUNGER,BIHAR,00:00,23:59,RLY-SDNG,6.9,8.0,BOTH,N,IR,,,Y,25.314236,86.492615
KRMA,KARAMTOLA,MLDT,ER,SAHEBGANJ,JHARKHAND,,,GOODS-SHED,2.2,,MANUAL,,IR,,,N,25.25549167,87.55303667
LLCR,LALMATIA LOADING COMPLEX(RAJMAHAL AREA),MLDT,ER,SAHEBGANJ,JHARKHAND,06:00,22:00,PRVT-SDNG,2.5,,,,,,,,25.0531,87.8316
MCCS,ULTRA TECH CEMENT LIMITED (UNIT: SONAR BANGLA CEMENT WORKS),MLDT,ER,MURSHIDABAD,WEST BENGAL,,,PRVT-SDNG,9.9,4.0,MECHANICAL,N,IR,MCCS,,N,24.413703,88.067093
MGLE,MANI GRAM,MLDT,ER,MURSHIDABAD,WEST BENGAL,06:00,22:00,GOODS-SHED,6.4,,,,IR,,,,24.34324,88.107985
MLDT,MALDATOWN,MLDT,ER,MALDAH,WEST BENGAL,00:00,23:59,GOODS-SHED,2.9,3.0,MANUAL,N,IR,,,Y,25.015665,88.13058667
MSQS,"MAHARAJPUR STONE QUARRY,  MOHRAJPUR",MLDT,ER,SAHEBGANJ,JHARKHAND,00:00,23:59,RLY-SDNG,5.2,1.0,BOTH,N,PUB,SBG,,N,25.219657,87.740378
MSQS,"MAHARAJPUR STONE QUARRY,  MOHRAJPUR",MLDT,ER,SAHEBGANJ,JHARKHAND,00:00,23:59,RLY-SDNG,8.4,1.0,BOTH,N,PUB,SBG,,N,25.219657,87.740378
MSQS,"MAHARAJPUR STONE QUARRY,  MOHRAJPUR",MLDT,ER,SAHEBGANJ,JHARKHAND,00:00,23:59,RLY-SDNG,9.3,1.0,BOTH,N,PUB,SBG,,N,25.219657,87.740378
MZC,MIRZA-CHEUKI,MLDT,ER,SAHEBGANJ,JHARKHAND,06:00,22:00,GOODS-SHED,9.5,1.0,MANUAL,N,IR,,,N,25.25924333,87.495825
NPBW,NEW PUBLIC SIDING BARHARWA,MLDT,ER,SAHEBGANJ,JHARKHAND,06:00,22:00,RLY-SDNG,2.6,,,,,,,,24.85832833,87.77454333
NTKS,"NATIONAL THERMAL POWER CORPN. PVT. SDG., KAHAL GAON",MLDT,ER,BHAGALPUR,BIHAR,00:00,23:59,PRVT-SDNG,1.4,6.0,BOTH,N,NTPC,CLG,,N,25.263637,87.237496
PACT,M/S AMBUJA CEMENT EASTERN LTD.,MLDT,ER,MURSHIDABAD,WEST BENGAL,06:00,22:00,PRVT-SDNG,7.3,3.0,MECHANICAL,N,AMBC,AAFN,,N,24.786579,87.873631
PCLS,PIRPAINTI COAL LDG RLY.SDG,MLDT,ER,BHAGALPUR,BIHAR,00:00,23:59,RLY-SDNG,2.3,2.0,BOTH,N,ECIL,PPT,,N,25.287115,87.421432
PPT,PIRPAINTI,MLDT,ER,BHAGALPUR,BIHAR,06:00,22:00,GOODS-SHED,6.7,1.0,MANUAL,,IR,,,N,25.29003167,87.42106667
PQLB,PUBLIC QUARRY SIDING BAKUDI LINE NO-1,MLDT,ER,SAHEBGANJ,JHARKHAND,06:00,22:00,RLY-SDNG,2.8,,,,,,,,24.92624556,87.78059167
PSPM,M/S SAGARDIGHI THERMAL POWER PLANT SIDING,MLDT,ER,MURSHIDABAD,WEST BENGAL,06:00,22:00,PRVT-SDNG,8.1,4.0,BOTH,N,WBPD,,,N,24.351163,88.102283
QSBK,QUARRY SIDING BAKUDI,MLDT,ER,SAHEBGANJ,JHARKHAND,06:00,22:00,RLY-SDNG,7.3,,,,,,,,24.92624556,87.78059167
RJL,RAJMAHAL,MLDT,ER,SAHEBGANJ,JHARKHAND,06:00,22:00,GOODS-SHED,7.6,1.0,BOTH,N,IR,,,N,25.05424167,87.83431
SBG,SAHIBGANJ,MLDT,ER,SAHEBGANJ,JHARKHAND,,,GOODS-SHED,2.0,2.0,BOTH,Y,IR,SBG,,N,25.24094667,87.63463833
SBGG,SAHIBGANJ PUBLIC SIDING,MLDT,ER,SAHEBGANJ,JHARKHAND,,,RLY-SDNG,2.6,4.0,BOTH,N,PUB,SBG,,N,25.24094667,87.63463833
SLJ,SAKRIGALI JN.,MLDT,ER,SAHEBGANJ,JHARKHAND,06:00,22:00,GOODS-SHED,1.1,0.0,MANUAL,N,IR,,,N,25.24242,87.7092
SLJG,SAKRIGALI GHAT LINE PUBLIC SIDING,MLDT,ER,SAHEBGANJ,JHARKHAND,06:00,22:00,RLY-SDNG,3.4,3.0,MANUAL,N,PUB,SLJ,,N,25.24242,87.7092
SSGS,SAKRIGALI SAWAI GOODS LINE,MLDT,ER,SAHEBGANJ,JHARKHAND,06:00,22:00,GOODS-SHED,2.6,,,,,,,,24.85832833,87.77454333
TJPS,TALJHARI PUBLIC SIDING,MLDT,ER,SAHEBGANJ,JHARKHAND,,,RLY-SDNG,2.0,1.0,MANUAL,N,PUB,BHW,,N,25.102388,87.734928
TKLE,TIKANI  BH  HALT,MLDT,ER,BHAGALPUR,BIHAR,,,GOODS-SHED,7.6,2.0,BOTH,N,IR,,,N,25.107885,86.993175
TPH,TINPAHAR JN.,MLDT,ER,SAHEBGANJ,JHARKHAND,06:00,22:00,GOODS-SHED,1.4,1.0,BOTH,N,IR,,,N,24.99607,87.74395167
BESB,M/S BHARTIA ELEC. STEEL CO. (BESCO) BARUIPUR,SDAH,ER,24 PARAGANAS SOUTH,WEST BENGAL,06:00,18:00,PRVT-SDNG,1.4,1.0,,,BESC,,,,22.366348,88.431337
BFTL,BOILER FACTORY of M/S TEXMACO LTD. BLH,SDAH,ER,24 PARAGANAS NORTH,WEST BENGAL,00:00,23:59,PRVT-SDNG,5.8,1.0,,N,TREL,,,,22.66166,88.389215
BGBG,BUDGE BUDGE GOODS,SDAH,ER,24 PARAGANAS SOUTH,WEST BENGAL,,,GOODS-SHED,4.4,3.0,BOTH,N,IR,NACC,,Y,22.4967,88.2023
BLN,BALLYGUNGE JN.,SDAH,ER,KOLKATA,WEST BENGAL,06:00,22:00,GOODS-SHED,2.4,1.0,MANUAL,Y,IR,,,N,22.51977222,88.37200833
BNJ,BANGAON JN.,SDAH,ER,24 PARAGANAS NORTH,WEST BENGAL,06:00,22:00,CRT,5.8,1.0,MANUAL,N,IR,,,N,23.03064833,88.832795
BPPS,BARRACKPORE RACECOURSE SDG(FOR MILY ONLY) BARRACKPORE,SDAH,ER,24 PARAGANAS NORTH,WEST BENGAL,00:00,23:59,PRVT-SDNG,2.4,1.0,MANUAL,N,MILY,,,N,22.7607653,88.371128
BT,BARASAT JN.,SDAH,ER,24 PARAGANAS NORTH,WEST BENGAL,06:00,22:00,CRT,7.6,1.0,MANUAL,Y,IR,,,N,22.72428833,88.48405
CED,COSSIPORE ROAD,SDAH,ER,KOLKATA,WEST BENGAL,00:00,23:59,GOODS-SHED,8.0,12.0,MANUAL,Y,IR,,,N,22.616863,88.375053
CEDC,COSSIPORE CONTAINER RAIL TERMINAL,SDAH,ER,KOLKATA,WEST BENGAL,,,CRT,8.9,1.0,MECHANICAL,N,IR,DKAE,,N,22.616863,88.375053
CFDI,"CENTRAL FOOD DEPOT PVT. SDG, BUDGE BUDGE",SDAH,ER,24 PARAGANAS SOUTH,WEST BENGAL,00:00,23:59,PRVT-SDNG,3.4,2.0,MANUAL,Y,FCI,,,N,22.49277248,88.19436228
CNGP,"M/S CESC LTD., TITAGARH",SDAH,ER,24 PARAGANAS NORTH,WEST BENGAL,00:00,23:59,PRVT-SDNG,9.0,1.0,BOTH,N,CESC,,,N,22.74199,88.374367
CP,CHITPUR,SDAH,ER,KOLKATA,WEST BENGAL,00:00,23:59,CRT,7.3,7.0,MANUAL,Y,IR,,,N,22.60081389,88.39241111
CSCL,M/S CALCUTTA STEEL CO.LTD.SDG. SERVED BY SODEPUR,SDAH,ER,24 PARAGANAS NORTH,WEST BENGAL,06:00,18:00,PRVT-SDNG,2.6,3.0,MANUAL,N,ESCL,,,N,22.698921,88.382263
CSZ,COSSIMBAZAR,SDAH,ER,MURSHIDABAD,WEST BENGAL,00:00,23:59,GOODS-SHED,5.6,1.0,MANUAL,N,IR,,,N,24.12253,88.26717333
CTKR,CONCOR TERMINAL KOPT COAL DOCK ROAD,SDAH,ER,KOLKATA,WEST BENGAL,06:00,22:00,PRVT-SDNG,2.1,2.0,MECHANICAL,Y,CONR,NACC,,N,22.519118,88.322396
DHU,DHUBULIA,SDAH,ER,NADIA,WEST BENGAL,00:00,23:59,GOODS-SHED,6.6,,,,,,,,23.48588306,88.44029944
ESCL,"M/S ELECTRO STEEL CASTING LTD SDG,SODPUR",SDAH,ER,24 PARAGANAS NORTH,WEST BENGAL,00:00,23:59,PRVT-SDNG,7.3,2.0,MANUAL,N,ESCL,,,N,22.698921,88.382263
FCK,"FCI SDG, KALYANI",SDAH,ER,NADIA,WEST BENGAL,00:00,23:59,PRVT-SDNG,2.8,6.0,MANUAL,Y,FCI,,,N,22.969299,88.467579
HB,HABRA,SDAH,ER,24 PARAGANAS NORTH,WEST BENGAL,06:00,22:00,GOODS-SHED,2.7,1.0,MANUAL,Y,IR,,,N,22.84096167,88.65771833
HDCL,"M/S HINDUSTAN ENGINEERING AND IND.LTD., BALLYGUNGE JN.",SDAH,ER,KOLKATA,WEST BENGAL,00:00,23:59,PRVT-SDNG,2.1,1.0,,,HEIL,,,,22.51977196,88.37200854
HLRS,HALISAHAR STORE DEPOT,SDAH,ER,24 PARAGANAS NORTH,WEST BENGAL,06:00,22:00,GOODS-SHED,8.6,1.0,BOTH,,IR,,,,22.887,88.4175
HPKB,M/S HINDUSTAN PETROLEUM CORPORATION LTD,SDAH,ER,24 PARAGANAS SOUTH,WEST BENGAL,06:00,22:00,PRVT-SDNG,3.7,2.0,MECHANICAL,,HPC,,,Y,22.4967,88.2023
KNJ,KRISHNA NAGAR CITY JN.,SDAH,ER,NADIA,WEST BENGAL,00:00,23:59,GOODS-SHED,10.0,2.0,MANUAL,Y,IR,,,N,23.38647167,88.49367167
KNR,KANKINARA,SDAH,ER,24 PARAGANAS NORTH,WEST BENGAL,06:00,22:00,GOODS-SHED,3.3,1.0,MANUAL,N,IR,NH,,N,22.86595333,88.40497833
KYI,KALYANI JN.,SDAH,ER,NADIA,WEST BENGAL,00:00,23:59,GOODS-SHED,9.5,2.0,MANUAL,Y,IR,,,N,22.96854833,88.46665167
MBB,MURSHIDABAD,SDAH,ER,MURSHIDABAD,WEST BENGAL,00:00,23:59,GOODS-SHED,3.4,,,,,,,,24.17684667,88.281845
